,id,Profession,annee_sour,source,Professi_1,localisati,détail,ind_Nom,indiv_titr,associé_n,successeur,ancienne m,nbre_adres,activités,annee_expo,nom_boutiq,type_rue,article_ru,nom_rue,num_rue,cpltnum_ru,ville_rue,autre_vill,infos_rue,unnamed_1,quart/sect,arrondisse,unnamed_2,unnamed_3,geocoder_t,geocoder_s,a_corriger,lon,lat,address
0,12,schals (fabricants et marchands de),1820,"almanach du commerce de Paris, des départemens de la France, et des principales villes du monde, de Jean de la Tynna ; continué et mis dans un meilleur ordre par S. Bottin, XXIIIe année, année 1820.",A1820,,,ber,,,,,,"fab rue du faubourg saint martin ; dépôt rue bourg l'abbé, 51",,,rue,du,faubourg saint martin,39.0,,,,,,,,,,precise_geocoding,jacoubet_paris,1,2.356214161952,48.8705743314219,39.0  rue du faubourg saint martin
1,17,schals (fabricants et marchands de),1820,"almanach du commerce de Paris, des départemens de la France, et des principales villes du monde, de Jean de la Tynna ; continué et mis dans un meilleur ordre par S. Bottin, XXIIIe année, année 1820.",A1820,,,bosquillon,,,,,,fab,,,rue,,neuve saint eustache,13.0,,,,,,,,,,precise_geocoding,jacoubet_paris,1,2.34517398917344,48.8672676214252,13.0  rue  neuve saint eustache
2,37,schals (fabricants et marchands de),1820,"almanach du commerce de Paris, des départemens de la France, et des principales villes du monde, de Jean de la Tynna ; continué et mis dans un meilleur ordre par S. Bottin, XXIIIe année, année 1820.",A1820,,,domantis,,,,,,fab façon cachemire,,,rue,,saint antoine,206.0,?,,,,,,,,,precise_geocoding,jacoubet_paris,1,2.36528738427066,48.8536953372196,206.0 ? rue  saint antoine
3,59,schals (fabricants et marchands de),1820,"almanach du commerce de Paris, des départemens de la France, et des principales villes du monde, de Jean de la Tynna ; continué et mis dans un meilleur ordre par S. Bottin, XXIIIe année, année 1820.",A1820,,,gobert,,,,,,fab,,,rue,du,faubourg saint martin,35.0,,,,,,,,,,precise_geocoding,jacoubet_paris,1,2.35610954081206,48.8703938940692,35.0  rue du faubourg saint martin
4,68,schals (fabricants et marchands de),1820,"almanach du commerce de Paris, des départemens de la France, et des principales villes du monde, de Jean de la Tynna ; continué et mis dans un meilleur ordre par S. Bottin, XXIIIe année, année 1820.",A1820,,,"hebert, frédéric & cie",,,,,,fab façon cachemire,,,rue,,saint denis,374.0,,,,,,,,,,precise_geocoding,jacoubet_paris,1,2.35203314487727,48.8685688628561,374.0  rue  saint denis
5,77,schals (fabricants et marchands de),1820,"almanach du commerce de Paris, des départemens de la France, et des principales villes du monde, de Jean de la Tynna ; continué et mis dans un meilleur ordre par S. Bottin, XXIIIe année, année 1820.",A1820,,,isot frères,,,,,,"fab de schals de laine, fab ? Cachemire et cahemires français",,,rue,,saint roch poissonnière,8.0,,,,,,,,,,precise_geocoding,jacoubet_paris,1,2.34774277629122,48.86886745649,8.0  rue  saint roch poissonnière
6,109,schals (fabricants et marchands de),1820,"almanach du commerce de Paris, des départemens de la France, et des principales villes du monde, de Jean de la Tynna ; continué et mis dans un meilleur ordre par S. Bottin, XXIIIe année, année 1820.",A1820,,,"prince & durant, d",,,,,,fabr,,,rue,,sainte apolline,9.0,,,,,,,,,,precise_geocoding,jacoubet_paris,1,2.35436000021874,48.868845535469596,9.0  rue  sainte apolline
7,116,schals (fabricants et marchands de),1820,"almanach du commerce de Paris, des départemens de la France, et des principales villes du monde, de Jean de la Tynna ; continué et mis dans un meilleur ordre par S. Bottin, XXIIIe année, année 1820.",A1820,,,"ribault, f",,,,,,fabr,,,rue,,bourbon villeneuve,14.0,,,,,,,,,,precise_geocoding,jacoubet_paris,1,2.34785240345664,48.8680117849104,14.0  rue  bourbon villeneuve
8,120,schals (fabricants et marchands de),1820,"almanach du commerce de Paris, des départemens de la France, et des principales villes du monde, de Jean de la Tynna ; continué et mis dans un meilleur ordre par S. Bottin, XXIIIe année, année 1820.",A1820,,,"sablet, a. & co",,,,,,"fab façon cachemire, gazes et étoffes de gout",,,rue,,sainte appoline,8.0,,,,,,,,,,precise_geocoding,jacoubet_paris,1,2.3542856797834903,48.868932901030504,8.0  rue  sainte appoline
9,140,chales (fabricans et march. de),1825,"almanach du commerce de Paris, des départemens de la France, et des principales villes du monde, de Jean de la Tynna ; continué et mis dans un meilleur ordre par S. Bottin, XXVIIIe année, 1825.",A1825,,,"guilhery, casimir",,,,,,"fab. châles impr, tissus , art de reims et amiens",,,rue,,croix des petits champs,42.0,,banque,,,,,,,,precise_geocoding,jacoubet_paris,1,2.34026646602592,48.864379391667605,42.0  rue  croix des petits champs
10,144,chales (fabricans et march. de),1825,"almanach du commerce de Paris, des départemens de la France, et des principales villes du monde, de Jean de la Tynna ; continué et mis dans un meilleur ordre par S. Bottin, XXVIIIe année, 1825.",A1825,,,hébert ainé,,,,,,fab,,,rue,,bourbon villeneuve,9.0,,BN,,,,,,,,precise_geocoding,jacoubet_paris,1,2.34807024473319,48.8681747214755,9.0  rue  bourbon villeneuve
11,145,chales (fabricans et march. de),1825,"almanach du commerce de Paris, des départemens de la France, et des principales villes du monde, de Jean de la Tynna ; continué et mis dans un meilleur ordre par S. Bottin, XXVIIIe année, 1825.",A1825,,,lereuil,,,,,,"fab brochés façon cachemire, barèges et nouveautés",,,rue,,bourbon villeneuve,11.0,,BN,,,,,,,,precise_geocoding,jacoubet_paris,1,2.3482036751189703,48.8682136309274,11.0  rue  bourbon villeneuve
12,173,chales (fabricans et march. de),1825,"almanach du commerce de Paris, des départemens de la France, et des principales villes du monde, de Jean de la Tynna ; continué et mis dans un meilleur ordre par S. Bottin, XXVIIIe année, 1825.",A1825,,,brousse & audbert,,,,,,mds,,,rue,,feydeau,34.0,,feydeau,2.0,,,,,,,precise_geocoding,jacoubet_paris,1,2.33915284180846,48.8699280072201,34.0  rue  feydeau
13,192,chales (fabricans et march. de),1825,"almanach du commerce de Paris, des départemens de la France, et des principales villes du monde, de Jean de la Tynna ; continué et mis dans un meilleur ordre par S. Bottin, XXVIIIe année, 1825.",A1825,,,"sourdeaux, a. & co.",,,,,,châles casimirs à longue franges et impressions en tout genre,,,rue,des,fossés montmartre,6.0,,Mail,,,,,,,,precise_geocoding,jacoubet_paris,1,2.34242837135244,48.8662046913236,6.0  rue des fossés montmartre
14,209,chales (fabricans et march. de),1825,"almanach du commerce de Paris, des départemens de la France, et des principales villes du monde, de Jean de la Tynna ; continué et mis dans un meilleur ordre par S. Bottin, XXVIIIe année, 1825.",A1825,,,pinchon,,,,,,fab,,,rue,,montmartre,80.0,,mmt,3.0,,,,,,,precise_geocoding,jacoubet_paris,1,2.3445155203235,48.866137465008,80.0  rue  montmartre
15,215,chales (fabricans et march. de),1825,"almanach du commerce de Paris, des départemens de la France, et des principales villes du monde, de Jean de la Tynna ; continué et mis dans un meilleur ordre par S. Bottin, XXVIIIe année, 1825.",A1825,,,"doublet, l. & laisney",,,,,,fab façon cachemire et cachemires français,,,rue,,neuve saint eustache,14.0,,mmt,,,,,,,,precise_geocoding,jacoubet_paris,1,2.3448944272568597,48.8670732219565,14.0  rue  neuve saint eustache
16,284,chales (fabricans et march de),1830,"almanach du commerce de Paris, des départemens de la France, et des principales villes du monde, de Jean de la Tynna ; continué et progressivement amélioré par S. Bottin, XXXIIIe année, 1830.",A1830,,,séjourné,,,,,,fab,,,rue,,saint denis,371.0,,bn,,,,,,,,precise_geocoding,jacoubet_paris,1,2.3518816612237,48.868685572287,371.0  rue  saint denis
17,229,chales (fabricans et march. de),1825,"almanach du commerce de Paris, des départemens de la France, et des principales villes du monde, de Jean de la Tynna ; continué et mis dans un meilleur ordre par S. Bottin, XXVIIIe année, 1825.",A1825,,,saint-estienne,,,,,,"fab cachemires, soie, laine et soie, barèges et étoffes nouvelles",,,rue,,neuve saint eustache,52.0,,mmt,,,,,,,,precise_geocoding,jacoubet_paris,1,2.34664933147085,48.8676327853677,52.0  rue  neuve saint eustache
18,1841,"dentelles, tulles, crêpes, blondes (fabricans et marchands de)",1840,,B1840,,,neveu-gillard,,,,,,,,,,,saint magloire,2.0,,,,,lombards,6.0,,,,precise_geocoding,jacoubet_paris,1,2.35003086963225,48.8624689988717,2.0    saint magloire
19,240,chales (fabricans et march. de),1825,"almanach du commerce de Paris, des départemens de la France, et des principales villes du monde, de Jean de la Tynna ; continué et mis dans un meilleur ordre par S. Bottin, XXVIIIe année, 1825.",A1825,,,"sablet, a. & co.",,,,,,"châles de laine, châles dits cachemires français, gazes de soie, barèges laine et cachemire, mérinos unis, châles imprimés sur mérinos et escot",,,rue,,sainte apolline,8.0,,porte st denis,6.0,,,,,,,precise_geocoding,jacoubet_paris,1,2.35428571446579,48.8689332872654,8.0  rue  sainte apolline
20,256,chales (fabricans et march de),1830,"almanach du commerce de Paris, des départemens de la France, et des principales villes du monde, de Jean de la Tynna ; continué et progressivement amélioré par S. Bottin, XXXIIIe année, 1830.",A1830,,,"lenfant, césar",,,,,,fab façon cachemire et banios,,,rue,,bourbon villeneuve,5.0,,bn,,,,,,,,precise_geocoding,jacoubet_paris,1,2.3477636322058704,48.8680919667204,5.0  rue  bourbon villeneuve
21,269,chales (fabricans et march de),1830,"almanach du commerce de Paris, des départemens de la France, et des principales villes du monde, de Jean de la Tynna ; continué et progressivement amélioré par S. Bottin, XXXIIIe année, 1830.",A1830,,,dufour & fournier,,,,,,fab façon cachemire et barèges,,,rue,,bourbon villeneuve,30.0,,bn,,,,,,,,precise_geocoding,jacoubet_paris,1,2.34998236670036,48.8686324980611,30.0  rue  bourbon villeneuve
22,274,chales (fabricans et march de),1830,"almanach du commerce de Paris, des départemens de la France, et des principales villes du monde, de Jean de la Tynna ; continué et progressivement amélioré par S. Bottin, XXXIIIe année, 1830.",A1830,,,sarazin frères & lhote,,,,,,"f ch en laine brochée façon cachemire, barèges et nouveautés ; fab à fresnoy le grand",,,rue,,bourbon villeneuve,39.0,,bn,,,,,,,,precise_geocoding,jacoubet_paris,1,2.3499186743559597,48.86872007332501,39.0  rue  bourbon villeneuve
23,280,chales (fabricans et march de),1830,"almanach du commerce de Paris, des départemens de la France, et des principales villes du monde, de Jean de la Tynna ; continué et progressivement amélioré par S. Bottin, XXXIIIe année, 1830.",A1830,,,barrier & co,,,,,,fab brochés façn cachemire et nouveautés,,,rue,,bourbon villeneuve,57.0,,bn,,,,,,,,precise_geocoding,jacoubet_paris,1,2.35129476277943,48.869125481019495,57.0  rue  bourbon villeneuve
24,306,chales (fabricans et march de),1830,"almanach du commerce de Paris, des départemens de la France, et des principales villes du monde, de Jean de la Tynna ; continué et progressivement amélioré par S. Bottin, XXXIIIe année, 1830.",A1830,,,"renouard aîné, f.a.",,,,,,"fab, et gazes, barèges, etc.",,,rue,des,fossés montmartre,8.0,,mail,,,,,,,,precise_geocoding,jacoubet_paris,1,2.34284425026925,48.866362026596796,8.0  rue des fossés montmartre
25,318,chales (fabricans et march de),1830,"almanach du commerce de Paris, des départemens de la France, et des principales villes du monde, de Jean de la Tynna ; continué et progressivement amélioré par S. Bottin, XXXIIIe année, 1830.",A1830,,,"dufour, emile",,,,,,"de saint quentin , fab chales de laine genre cachemire et fleurs françaises, gazes de soie, barèges, et art de nouveautés ; et à st quentin",,,rue,du,mail,16.0,,mail,,,,,,,,precise_geocoding,jacoubet_paris,1,2.3425648633982203,48.8667758247398,16.0  rue du mail
26,325,chales (fabricans et march de),1830,"almanach du commerce de Paris, des départemens de la France, et des principales villes du monde, de Jean de la Tynna ; continué et progressivement amélioré par S. Bottin, XXXIIIe année, 1830.",A1830,,,ludière,,,,,,fab,,,rue,,saint denis,145.0,,marchés,,,,,,,,precise_geocoding,jacoubet_paris,1,2.34922881605823,48.8621974879469,145.0  rue  saint denis
27,348,chales (fabricans et march de),1830,"almanach du commerce de Paris, des départemens de la France, et des principales villes du monde, de Jean de la Tynna ; continué et progressivement amélioré par S. Bottin, XXXIIIe année, 1830.",A1830,,,limagne dit pascal,,,,,,fab façon cachemire et barèges,,,rue,,neuve saint eustache,28.0,,mmt,,,,,,,,precise_geocoding,jacoubet_paris,1,2.3456062218563996,48.867293207280504,28.0  rue  neuve saint eustache
28,385,chales (fabricans et march de),1830,"almanach du commerce de Paris, des départemens de la France, et des principales villes du monde, de Jean de la Tynna ; continué et progressivement amélioré par S. Bottin, XXXIIIe année, 1830.",A1830,,,thomas & chevalier,,,,,,"fab, et broderies, nouveautés",,,rue,,vendéme,12.0,,temple,6.0,,,,,,,precise_geocoding,jacoubet_paris,1,2.36335413929619,48.866741593482296,12.0  rue  vendéme
29,390,chales (fabricans et march de),1835,"almanach du commerce de Paris, des départemens de la France, et des principales villes du monde, de Jean de la Tynna ; continué et progressivement amélioré par S. Bottin, XXXVIIIe année, année 1835.",A1835,,,mallard,,,,,,f et nouveautés,,,rue,,beauveau saint antoine,5.0,,,,,,,,,,precise_geocoding,jacoubet_paris,1,2.3559588989850098,48.855909150146104,5.0  rue  beauveau saint antoine
30,395,chales (fabricans et march de),1835,"almanach du commerce de Paris, des départemens de la France, et des principales villes du monde, de Jean de la Tynna ; continué et progressivement amélioré par S. Bottin, XXXVIIIe année, année 1835.",A1835,,,barrier & co,,,,,,fab brochés façon cachemire et nouveautés,,,rue,,bourbon villeneuve,15.0,,,,,,,,,,precise_geocoding,jacoubet_paris,1,2.34841075321684,48.8682784240701,15.0  rue  bourbon villeneuve
31,401,chales (fabricans et march de),1835,"almanach du commerce de Paris, des départemens de la France, et des principales villes du monde, de Jean de la Tynna ; continué et progressivement amélioré par S. Bottin, XXXVIIIe année, année 1835.",A1835,,,barbe,,,,,,"fab châles brochés laine pour l'exportation, mousseline laine, châlis, barège, popeline, tissu à gigots et confection, gigots en duvet, édredon et baleine",,,rue,,bourbon villeneuve,28.0,,,,,,,,,,precise_geocoding,jacoubet_paris,1,2.3497971373122,48.86857922470671,28.0  rue  bourbon villeneuve
32,405,chales (fabricans et march de),1835,"almanach du commerce de Paris, des départemens de la France, et des principales villes du monde, de Jean de la Tynna ; continué et progressivement amélioré par S. Bottin, XXXVIIIe année, année 1835.",A1835,,,"bayle, g & jardin",,,,,,"f châles cachem, laine et nouv, dépôt de Lyon et Nimes, commission en achat des articles de paris ; fab à bohain",,,rue,de,cléry,9.0,,,,,,,,,,precise_geocoding,jacoubet_paris,1,2.3445882839152996,48.8675619402062,9.0  rue de cléry
33,415,chales (fabricans et march de),1835,"almanach du commerce de Paris, des départemens de la France, et des principales villes du monde, de Jean de la Tynna ; continué et progressivement amélioré par S. Bottin, XXXVIIIe année, année 1835.",A1835,,,"brousse, jb",,,,,,"dépôt de cachemires et foulards des indes, cachemires français, nouveautés, soieries, mérinos et art de fantaisie, entrepôt des cachemires Lagorce & ternaux, rue richelieu 82 et rue feydeau 34, à la caravane",,,rue,,feydeau,34.0,,,,,,,,,,precise_geocoding,jacoubet_paris,1,2.33915268469092,48.869927946916704,34.0  rue  feydeau
34,431,chales (fabricans et march de),1835,"almanach du commerce de Paris, des départemens de la France, et des principales villes du monde, de Jean de la Tynna ; continué et progressivement amélioré par S. Bottin, XXXVIIIe année, année 1835.",A1835,,,fouquet aîné,,,,,,f cachemires,,,rue,des,fossés montmartre,15.0,,,,,,,,,,precise_geocoding,jacoubet_paris,1,2.3427683678283997,48.8664367094473,15.0  rue des fossés montmartre
35,432,chales (fabricans et march de),1835,"almanach du commerce de Paris, des départemens de la France, et des principales villes du monde, de Jean de la Tynna ; continué et progressivement amélioré par S. Bottin, XXXVIIIe année, année 1835.",A1835,,,deneirouse & co,,,,,,sucess de lagorce aîné & co ; fab châles et étoffes en cachemire,,,rue,des,fossés montmartre,16.0,,,,,,,,,,precise_geocoding,jacoubet_paris,1,2.34352960958827,48.8666091010456,16.0  rue des fossés montmartre
36,448,chales (fabricans et march de),1835,"almanach du commerce de Paris, des départemens de la France, et des principales villes du monde, de Jean de la Tynna ; continué et progressivement amélioré par S. Bottin, XXXVIIIe année, année 1835.",A1835,,,"raveneau, hte",,,,,,"fab et étoffes nouvelles, châles brochés et imprimés, écharpes, manteaux, nouveautés, etc",,,rue,du,mail,19.0,,,,,,,,,,precise_geocoding,jacoubet_paris,1,2.3425732824472596,48.866883838756706,19.0  rue du mail
37,451,chales (fabricans et march de),1835,"almanach du commerce de Paris, des départemens de la France, et des principales villes du monde, de Jean de la Tynna ; continué et progressivement amélioré par S. Bottin, XXXVIIIe année, année 1835.",A1835,,,"rousseau, caroline",,,,,,,,,boulevard,,montmartre,12.0,,,,,,,,,,precise_geocoding,jacoubet_paris,1,2.34157992178871,48.8719206499281,12.0  boulevard  montmartre
38,458,chales (fabricans et march de),1835,"almanach du commerce de Paris, des départemens de la France, et des principales villes du monde, de Jean de la Tynna ; continué et progressivement amélioré par S. Bottin, XXXVIIIe année, année 1835.",A1835,,,manuel & macaigne aîné,,,,,,"f à bohain, cachemires purs, cachemires indoux, laine et nouveautés",,,rue,,neuve saint eustache,5.0,,,,,,,,,,precise_geocoding,jacoubet_paris,1,2.3446236349000897,48.86708546663711,5.0  rue  neuve saint eustache
39,473,chales (fabricans et march de),1835,"almanach du commerce de Paris, des départemens de la France, et des principales villes du monde, de Jean de la Tynna ; continué et progressivement amélioré par S. Bottin, XXXVIIIe année, année 1835.",A1835,,,prissette fils,,,,,,"f laine façon cachemire, gazes et barèges",,,rue,,neuve saint eustache,24.0,,,,,,,,,,precise_geocoding,jacoubet_paris,1,2.34535062087194,48.8672174183408,24.0  rue  neuve saint eustache
40,476,chales (fabricans et march de),1835,"almanach du commerce de Paris, des départemens de la France, et des principales villes du monde, de Jean de la Tynna ; continué et progressivement amélioré par S. Bottin, XXXVIIIe année, année 1835.",A1835,,,macaigne,,,,,,"f châles, barèges, popelines, châlis, mousselines de laine et nouveautés",,,rue,,neuve saint eustache,28.0,,,,,,,,,,precise_geocoding,jacoubet_paris,1,2.3456062101462902,48.8672941395076,28.0  rue  neuve saint eustache
41,478,chales (fabricans et march de),1835,"almanach du commerce de Paris, des départemens de la France, et des principales villes du monde, de Jean de la Tynna ; continué et progressivement amélioré par S. Bottin, XXXVIIIe année, année 1835.",A1835,,,"douinet, henry & co",,,,,,fab châles de cachem français ; fab à condé ste libiaire (s&m),,,rue,,neuve saint eustache,29.0,,,,,,,,,,precise_geocoding,jacoubet_paris,1,2.34614451623895,48.867574517463396,29.0  rue  neuve saint eustache
42,479,chales (fabricans et march de),1835,"almanach du commerce de Paris, des départemens de la France, et des principales villes du monde, de Jean de la Tynna ; continué et progressivement amélioré par S. Bottin, XXXVIIIe année, année 1835.",A1835,,,vatin & co,,,,,,"fab façon cachemire, barèges et nouveautés ; fab à seboncourt",,,rue,,neuve saint eustache,29.0,,,,,,,,,,precise_geocoding,jacoubet_paris,1,2.34614451623895,48.867574517463396,29.0  rue  neuve saint eustache
43,494,chales (fabricans et march de),1835,"almanach du commerce de Paris, des départemens de la France, et des principales villes du monde, de Jean de la Tynna ; continué et progressivement amélioré par S. Bottin, XXXVIIIe année, année 1835.",A1835,,,"grehert, alexandre & co",,,,,,"fab barège, popeline, châlis, mousseline-laine, thibet et écharpes ; fab à etaves (aisne)",,,rue,,neuve saint eustache,40.0,,,,,,,,,,precise_geocoding,jacoubet_paris,1,2.34626891859094,48.867511844865795,40.0  rue  neuve saint eustache
44,548,chales (fabricans et march de),1840,"Annuaire général du commerce, judiciaire et administratif de France et des principales villes du monde, rédigé sous la direction de Ch. Lamy . Paris, 1840.",A1840,,,bosche,,,,,,,,,rue,,saint maur popincourt,14.0,,,,,,,,,,precise_geocoding,jacoubet_paris,1,2.3828054438533797,48.8596164516615,14.0  rue  saint maur popincourt
45,551,chales (fabricans et march de),1840,"Annuaire général du commerce, judiciaire et administratif de France et des principales villes du monde, rédigé sous la direction de Ch. Lamy . Paris, 1840.",A1840,,,bourg,,,,,,,,,rue,,popincourt,41.0,,,,,,,,,,precise_geocoding,jacoubet_paris,1,2.37541203651458,48.860077486287295,41.0  rue  popincourt
46,552,chales (fabricans et march de),1840,"Annuaire général du commerce, judiciaire et administratif de France et des principales villes du monde, rédigé sous la direction de Ch. Lamy . Paris, 1840.",A1840,,,bourgogne,,,,,,châles et mousselines laine,,,rue,,saint maur temple,72.0,,,,,,,,,,precise_geocoding,jacoubetl_paris,1,2.3751286449562996,48.86818469389271,72.0  rue  saint maur temple
47,566,chales (fabricans et march de),1840,"Annuaire général du commerce, judiciaire et administratif de France et des principales villes du monde, rédigé sous la direction de Ch. Lamy . Paris, 1840.",A1840,,,cathelineau-vallée & cie,,,,,,"châles brochés, nouveautés",,,rue,,neuve saint eustache,30.0,,,,,,,,,,precise_geocoding,jacoubet_paris,1,2.3456987442413197,48.867327695204295,30.0  rue  neuve saint eustache
48,567,chales (fabricans et march de),1840,"Annuaire général du commerce, judiciaire et administratif de France et des principales villes du monde, rédigé sous la direction de Ch. Lamy . Paris, 1840.",A1840,,,chambellan & duché aîné,,,,,,"fabr châles cachemires, indous et nouveautés",,,rue,des,fossés montmartre,8.0,,,,,,,,,,precise_geocoding,jacoubet_paris,1,2.34284427970767,48.8663620267586,8.0  rue des fossés montmartre
49,573,chales (fabricans et march de),1840,"Annuaire général du commerce, judiciaire et administratif de France et des principales villes du monde, rédigé sous la direction de Ch. Lamy . Paris, 1840.",A1840,,,colinet,,,,,,,,,rue,,basfroid,15.0,,,,,,,,,,precise_geocoding,jacoubet_paris,1,2.37944119343695,48.8545588980352,15.0  rue  basfroid
50,585,chales (fabricans et march de),1840,"Annuaire général du commerce, judiciaire et administratif de France et des principales villes du monde, rédigé sous la direction de Ch. Lamy . Paris, 1840.",A1840,,,degrave aîné,,,,,,,,,rue,,neuve saint eustache,36.0,,,,,,,,,,precise_geocoding,jacoubet_paris,1,2.34606510709054,48.8674463206619,36.0  rue  neuve saint eustache
51,599,chales (fabricans et march de),1840,"Annuaire général du commerce, judiciaire et administratif de France et des principales villes du monde, rédigé sous la direction de Ch. Lamy . Paris, 1840.",A1840,,,dumont,,,,,,,,,rue,,,12.0,,,,,,,,,,precise_geocoding,jacoubet_paris,1,2.33908625017046,48.8697135378656,12.0  rue  
52,624,chales (fabricans et march de),1840,"Annuaire général du commerce, judiciaire et administratif de France et des principales villes du monde, rédigé sous la direction de Ch. Lamy . Paris, 1840.",A1840,,,gessiomme,,,,,,,,,passage,du,saumon,,,,,,,,,,,precise_geocoding,jacoubet_paris,1,2.3451616915634,48.866111928254696,  passage du saumon
53,626,chales (fabricans et march de),1840,"Annuaire général du commerce, judiciaire et administratif de France et des principales villes du monde, rédigé sous la direction de Ch. Lamy . Paris, 1840.",A1840,,,goguelat,,,,,,"cachemires français, mérinos et tapis imprimés",,,place,des,victoires,12.0,,,,,,,,,,precise_geocoding,jacoubet_paris,1,2.3411225687990203,48.8660939626251,12.0  place des victoires
54,629,chales (fabricans et march de),1840,"Annuaire général du commerce, judiciaire et administratif de France et des principales villes du monde, rédigé sous la direction de Ch. Lamy . Paris, 1840.",A1840,,,gouré jeune,,,,,,"châles indous, cachemires et nouveautés",,,rue,,neuve saint eustache,8.0,,,,,,,,,,precise_geocoding,jacoubet_paris,1,2.3446495895566697,48.8669926112471,8.0  rue  neuve saint eustache
55,645,chales (fabricans et march de),1840,"Annuaire général du commerce, judiciaire et administratif de France et des principales villes du monde, rédigé sous la direction de Ch. Lamy . Paris, 1840.",A1840,,,heurtebise,,,,,,"châles brochés, laine et cachemire, indous, tartans, tissus et nouveautés",,,rue,,neuve saint eustache,27.0,,,,,,,,,,precise_geocoding,jacoubet_paris,1,2.34602400808765,48.867531714958,27.0  rue  neuve saint eustache
56,658,chales (fabricans et march de),1840,"Annuaire général du commerce, judiciaire et administratif de France et des principales villes du monde, rédigé sous la direction de Ch. Lamy . Paris, 1840.",A1840,,,"labeunie, j & oppenheim",,,,,,"châles de paris, lyon et nimes",,,rue,des,fossés montmartre,25.0,,,,,,,,,,precise_geocoding,jacoubet_paris,1,2.34352361171932,48.866707724136106,25.0  rue des fossés montmartre
57,674,chales (fabricans et march de),1840,"Annuaire général du commerce, judiciaire et administratif de France et des principales villes du monde, rédigé sous la direction de Ch. Lamy . Paris, 1840.",A1840,,,lemaignen,,,,,,"châles indous, mousseline-laine, manteaux, tartans et nouveautés",,,rue,,neuve saint eustache,32.0,,,,,,,,,,precise_geocoding,jacoubet_paris,1,2.34584368362179,48.867374087235206,32.0  rue  neuve saint eustache
58,1476,dentelles et blondes (marchands de),1815,,B1815,,,tardif,,,,,,fabr à bayeux ; dépôt,,,rue,,saint denis,234.0,,,,,porte saint denis,6.0,,,,precise_geocoding,jacoubet_paris,1,2.35023834517563,48.864472668865794,234.0  rue  saint denis
59,694,chales (fabricans et march de),1840,"Annuaire général du commerce, judiciaire et administratif de France et des principales villes du monde, rédigé sous la direction de Ch. Lamy . Paris, 1840.",A1840,,,maliver jeune,,,,,,fabr nouveautés,,,rue,des,fossés montmartre,10.0,,,,,,,,,,precise_geocoding,jacoubet_paris,1,2.34300251715834,48.8664179818526,10.0  rue des fossés montmartre
60,722,chales (fabricans et march de),1840,"Annuaire général du commerce, judiciaire et administratif de France et des principales villes du monde, rédigé sous la direction de Ch. Lamy . Paris, 1840.",A1840,,,"proyart, n",,,,,,"châles, nouveautés",,,rue,de,cléry,42.0,,,,,,,,,,precise_geocoding,jacoubet_paris,1,2.34699541404142,48.868222265957606,42.0  rue de cléry
61,727,chales (fabricans et march de),1840,"Annuaire général du commerce, judiciaire et administratif de France et des principales villes du monde, rédigé sous la direction de Ch. Lamy . Paris, 1840.",A1840,,,robert & cie,,,,,,"brochés, laine, indous et nouveautés",,,rue,de,cléry,34.0,,,,,,,,,,precise_geocoding,jacoubet_paris,1,2.34630874258903,48.8679946146019,34.0  rue de cléry
62,745,chales (fabricans et march de),1840,"Annuaire général du commerce, judiciaire et administratif de France et des principales villes du monde, rédigé sous la direction de Ch. Lamy . Paris, 1840.",A1840,,,teinturier,,,,,,mérinos et nouveautés,,,rue,,saint maur popincourt,17.0,,,,,,,,,,precise_geocoding,jacoubet_paris,1,2.37736179250896,48.8654185708959,17.0  rue  saint maur popincourt
63,752,chales (fabricans et march de),1840,"Annuaire général du commerce, judiciaire et administratif de France et des principales villes du monde, rédigé sous la direction de Ch. Lamy . Paris, 1840.",A1840,,,"trouillet, m",,,,,,châles laine brochés,,,rue,,bourbon villeneuve,5.0,,,,,,,,,,precise_geocoding,jacoubet_paris,1,2.34776222496418,48.86809149290671,5.0  rue  bourbon villeneuve
64,755,chales (fabricans et march de),1840,"Annuaire général du commerce, judiciaire et administratif de France et des principales villes du monde, rédigé sous la direction de Ch. Lamy . Paris, 1840.",A1840,,,videcoq,,,,,,cachemires ternaux,,,rue,des,fossés montmartre,3.0,,,,,,,,,,precise_geocoding,jacoubet_paris,1,2.34174092715421,48.8660569761305,3.0  rue des fossés montmartre
65,756,chales (fabricans et march. de),1845,"Annuaire du commerce et de l'industrie, de la magistrature et de l'administration, ou almanach des 500 000 adresses, punlié par Firmin Didot Frères, 1845, 8ème année de la publication.",A1845,,,albert ; simon & nourtier,,,,,,"fab., châles cachemires, laines et indous, tissus et nouveautés, articles pour l'exportation",,,rue,des,fossés montmartre,2.0,,Mail,,,,,,,,precise_geocoding,jacoubet_paris,1,2.3416895339350896,48.8659309574259,2.0  rue des fossés montmartre
66,760,chales (fabricans et march. de),1845,"Annuaire du commerce et de l'industrie, de la magistrature et de l'administration, ou almanach des 500 000 adresses, punlié par Firmin Didot Frères, 1845, 8ème année de la publication.",A1845,,,aubé-leguey & cie,,,,,,"châles, cachemires et indous de paris",,,rue,,fossés montmartre,9.0,,,,,,,,,,precise_geocoding,jacoubet_paris,1,2.34228587100092,48.8662536413307,9.0  rue  fossés montmartre
67,761,chales (fabricans et march. de),1845,"Annuaire du commerce et de l'industrie, de la magistrature et de l'administration, ou almanach des 500 000 adresses, punlié par Firmin Didot Frères, 1845, 8ème année de la publication.",A1845,,,aubeux,,,,,,"fab d'étoffes pour gilets en tous genres, châles indous, cachemires et écharpes, nouveautés",,,rue,,saint maur,100.0,,,,,,,,,,precise_geocoding,vasserot_paris,1,2.3738038452701296,48.869636963840506,100.0  rue  saint maur
68,771,chales (fabricans et march. de),1845,"Annuaire du commerce et de l'industrie, de la magistrature et de l'administration, ou almanach des 500 000 adresses, punlié par Firmin Didot Frères, 1845, 8ème année de la publication.",A1845,,fab à fresnoy le grand (aisne),bideau,,,,,,fab châles et nouveautés ; fab à fresnoy le grand (aisne),,,rue,,neuve saint eustache,32.0,,,,,,,,,,precise_geocoding,jacoubet_paris,1,2.3458427493870095,48.867373460601996,32.0  rue  neuve saint eustache
69,783,chales (fabricans et march. de),1845,"Annuaire du commerce et de l'industrie, de la magistrature et de l'administration, ou almanach des 500 000 adresses, punlié par Firmin Didot Frères, 1845, 8ème année de la publication.",A1845,,,"bounrhonet, p.",,,,,,fab de chales et cachemires indous,,,rue,des,fossés montmartre,2.0,,Mail,,,,,,,,precise_geocoding,jacoubet_paris,1,2.3416895339350896,48.8659309574259,2.0  rue des fossés montmartre
70,788,chales (fabricans et march. de),1845,"Annuaire du commerce et de l'industrie, de la magistrature et de l'administration, ou almanach des 500 000 adresses, punlié par Firmin Didot Frères, 1845, 8ème année de la publication.",A1845,maison à Lyon,,bouteille frères,,,,,,fab de châles indous et nouveautés,,,rue,,feuillade,4.0,,,,,,,,,,precise_geocoding,jacoubet_paris,1,2.3402779599918797,48.865981092663496,4.0  rue  feuillade
71,836,chales (fabricans et march. de),1845,"Annuaire du commerce et de l'industrie, de la magistrature et de l'administration, ou almanach des 500 000 adresses, punlié par Firmin Didot Frères, 1845, 8ème année de la publication.",A1845,,,delabarre,,,,,,"fab de châles brochés, kabyles, châles unis et imprimés en mousseline-laine, mérinos et napoiltaine",,,rue,,cléry,10.0,,,,,,,,,,precise_geocoding,jacoubet_paris,1,2.34484739919455,48.8675226584151,10.0  rue  cléry
72,847,chales (fabricans et march. de),1845,"Annuaire du commerce et de l'industrie, de la magistrature et de l'administration, ou almanach des 500 000 adresses, punlié par Firmin Didot Frères, 1845, 8ème année de la publication.",A1845,,,"devin, ch.",,,,,,"châles en tout genre, unis, imprimés, brochés et brodés ; mérinos, cachemires d el'écosse, napoiltaine, mousseline de laine, tartans, kabyles, cravates de fantaisie carrée, longues et à filets, fichus popeline, chalys, spahis, camargos et art de",,,rue,,poissonnière,3.0,,,,,,,,,,precise_geocoding,osm_paris,1,2.34756963515545,48.8686175937166,3.0  rue  poissonnière
73,855,chales (fabricans et march. de),1845,"Annuaire du commerce et de l'industrie, de la magistrature et de l'administration, ou almanach des 500 000 adresses, punlié par Firmin Didot Frères, 1845, 8ème année de la publication.",A1845,,,fabart & cie,,,,,,,,,rue,,fossés montmartre,23.0,,,,,,,,,,precise_geocoding,jacoubet_paris,1,2.34331630430114,48.866631621596,23.0  rue  fossés montmartre
74,856,chales (fabricans et march. de),1845,"Annuaire du commerce et de l'industrie, de la magistrature et de l'administration, ou almanach des 500 000 adresses, punlié par Firmin Didot Frères, 1845, 8ème année de la publication.",A1845,,,"fath, a.",,,,,,,,,rue,,frondeurs,2.0,,,,,,,,,,precise_geocoding,jacoubet_paris,1,2.3341880953304703,48.863951822691405,2.0  rue  frondeurs
75,869,chales (fabricans et march. de),1845,"Annuaire du commerce et de l'industrie, de la magistrature et de l'administration, ou almanach des 500 000 adresses, punlié par Firmin Didot Frères, 1845, 8ème année de la publication.",A1845,,,gaussen ainé & cie,,,,,,manufacture de châles cachemires et nouveautés,,,passage,des,petits pères,1.0,,,,,,,,,,precise_geocoding,jacoubet_paris,1,2.33973144392241,48.866629884628296,1.0  passage des petits pères
76,906,chales (fabricans et march. de),1845,"Annuaire du commerce et de l'industrie, de la magistrature et de l'administration, ou almanach des 500 000 adresses, punlié par Firmin Didot Frères, 1845, 8ème année de la publication.",A1845,,,lafont ; féline Frères,,,,,,et mérinos,,,rue,,neuve saint eustache,35.0,,,,,,,,,,precise_geocoding,jacoubet_paris,1,2.3464413106153197,48.8676669444787,35.0  rue  neuve saint eustache
77,908,chales (fabricans et march. de),1845,"Annuaire du commerce et de l'industrie, de la magistrature et de l'administration, ou almanach des 500 000 adresses, punlié par Firmin Didot Frères, 1845, 8ème année de la publication.",A1845,,,lambert-blanchard & cie,,,,,,"tissus écrus, laine, châles, châlis, tartans",,,rue,,neuve saint eustache,36.0,,,,,,,,,,precise_geocoding,jacoubet_paris,1,2.34606604523019,48.8674466365512,36.0  rue  neuve saint eustache
78,931,chales (fabricans et march. de),1845,"Annuaire du commerce et de l'industrie, de la magistrature et de l'administration, ou almanach des 500 000 adresses, punlié par Firmin Didot Frères, 1845, 8ème année de la publication.",A1845,,,machet,,,,,,"châles, barèges et nouveautés",,,rue,,neuve saint eustache,29.0,,,,,,,,,,precise_geocoding,jacoubet_paris,1,2.3461445103881804,48.86757498357671,29.0  rue  neuve saint eustache
79,953,chales (fabricans et march. de),1845,"Annuaire du commerce et de l'industrie, de la magistrature et de l'administration, ou almanach des 500 000 adresses, punlié par Firmin Didot Frères, 1845, 8ème année de la publication.",A1845,,,pesme,,,,,,fab de châles,,,boulevard,,montparnasse,73.0,,,,,,,,,,precise_geocoding,vasserotl_paris,1,2.3342340253089398,48.84066933801579,73.0  boulevard  montparnasse
80,971,chales (fabricans et march. de),1845,"Annuaire du commerce et de l'industrie, de la magistrature et de l'administration, ou almanach des 500 000 adresses, punlié par Firmin Didot Frères, 1845, 8ème année de la publication.",A1845,,,"rousseau, caroline",,,,,,,,,boulevard,,montmartre,16.0,,,,,,,,,,precise_geocoding,jacoubet_paris,1,2.3406444982646697,48.872067637686996,16.0  boulevard  montmartre
81,980,chales (fabricans et march. de),1845,"Annuaire du commerce et de l'industrie, de la magistrature et de l'administration, ou almanach des 500 000 adresses, punlié par Firmin Didot Frères, 1845, 8ème année de la publication.",A1845,,,sivel ; caron & cie,,,,,,châles indous en tout genre et nouv,,,rue,,neuve saint eustache,25.0,,,,,,,,,,precise_geocoding,jacoubet_paris,1,2.3459467186947998,48.867506141235,25.0  rue  neuve saint eustache
82,984,chales (fabricans et march. de),1845,"Annuaire du commerce et de l'industrie, de la magistrature et de l'administration, ou almanach des 500 000 adresses, punlié par Firmin Didot Frères, 1845, 8ème année de la publication.",A1845,,,thirion maillard,,,,,,"fab de châles de laine, façon cachemires français, barèges, gazes et nouveautés",,,rue,,neuve saint eustache,54.0,,,,,,,,,,precise_geocoding,jacoubet_paris,1,2.34675948447148,48.8676692558882,54.0  rue  neuve saint eustache
83,986,chales (fabricans et march. de),1845,"Annuaire du commerce et de l'industrie, de la magistrature et de l'administration, ou almanach des 500 000 adresses, punlié par Firmin Didot Frères, 1845, 8ème année de la publication.",A1845,,,timmermann & cie,,,,,,,,,rue,,neuve saint eustache,14.0,,,,,,,,,,precise_geocoding,jacoubet_paris,1,2.3448939846383903,48.8670723263266,14.0  rue  neuve saint eustache
84,997,dentelles et blondes (fab et march de),1808,"Almanach du commerce de Paris, des départemens de l'empire français, et des principales villes du monde, par Jean de la Tynna, année 1808",B1808,,,besuchet,,,,,,,,,rue,,saint denis,109.0,,,,,,,,,,precise_geocoding,jacoubet_paris,1,2.34875260814972,48.861335872951,109.0  rue  saint denis
85,1000,dentelles et blondes (fab et march de),1808,"Almanach du commerce de Paris, des départemens de l'empire français, et des principales villes du monde, par Jean de la Tynna, année 1808",B1808,,,bousifet & ferrand,,,,,,fabr,,,place,du,caire,33.0,,,,,,,,,,precise_geocoding,jacoubet_paris,1,2.34863569354861,48.867993635518,33.0  place du caire
86,1012,dentelles et blondes (fab et march de),1808,"Almanach du commerce de Paris, des départemens de l'empire français, et des principales villes du monde, par Jean de la Tynna, année 1808",B1808,,,gérard,,,,,,,,,rue,,quincampoix,8.0,,,,,,,,,,precise_geocoding,jacoubet_paris,1,2.3503755820411296,48.8607230235054,8.0  rue  quincampoix
87,1013,dentelles et blondes (fab et march de),1808,"Almanach du commerce de Paris, des départemens de l'empire français, et des principales villes du monde, par Jean de la Tynna, année 1808",B1808,,,grenet,,,,,,,,,rue,du,coq saint honoré,11.0,,,,,,,,,,precise_geocoding,jacoubet_paris,1,2.33917907791221,48.8617926599911,11.0  rue du coq saint honoré
88,1014,dentelles et blondes (fab et march de),1808,"Almanach du commerce de Paris, des départemens de l'empire français, et des principales villes du monde, par Jean de la Tynna, année 1808",B1808,,,grolleron,,,,,,,,,rue,,bon conseil,16.0,,,,,,,,,,precise_geocoding,jacoubet_paris,1,2.34880395245927,48.863923303672706,16.0  rue  bon conseil
89,1018,dentelles et blondes (fab et march de),1808,"Almanach du commerce de Paris, des départemens de l'empire français, et des principales villes du monde, par Jean de la Tynna, année 1808",B1808,,,joly jeune,,,,,,,,,rue,,saint denis,311.0,,,,,,,,,,precise_geocoding,jacoubet_paris,1,2.3511463998895095,48.866904462929405,311.0  rue  saint denis
90,1041,dentelles et blondes (fab et march de),1808,"Almanach du commerce de Paris, des départemens de l'empire français, et des principales villes du monde, par Jean de la Tynna, année 1808",B1808,,,tardif,,,,,,fabr,,,rue,,thévenot,12.0,,,,,,,,,,precise_geocoding,jacoubet_paris,1,2.3492513138052797,48.8668054449698,12.0  rue  thévenot
91,1043,dentelles et blondes (fab et march de),1808,"Almanach du commerce de Paris, des départemens de l'empire français, et des principales villes du monde, par Jean de la Tynna, année 1808",B1808,,,vandessel,,,,,,fabr à chantilly,,,rue,des,moulins,22.0,,,,,,,,,,precise_geocoding,jacoubet_paris,1,2.33497050963587,48.8665877333339,22.0  rue des moulins
92,1050,"dentelles, tulles, crepes et blondes (fabr et march de)",1820,"almanach du commerce de Paris, des départemens de la France, et des principales villes du monde, de Jean de la Tynna ; continué et mis dans un meilleur ordre par S. Bottin, XXIIIe année, année 1820.",B1820,,,boileau,,,,,,march,,,rue,,saint denis,120.0,,,,,,,,,,precise_geocoding,jacoubet_paris,1,2.3488028271191803,48.861073903985904,120.0  rue  saint denis
93,1065,"dentelles, tules, crêpes et blondes (fabr et march de)",1820,"almanach du commerce de Paris, des départemens de la France, et des principales villes du monde, de Jean de la Tynna ; continué et mis dans un meilleur ordre par S. Bottin, XXIIIe année, année 1820.",B1820,,,dubosc ; leloup & cie,,,,,,march,,,rue,de,tracy,5.0,,,,,,,,,,precise_geocoding,jacoubet_paris,1,2.35275490876458,48.8679609440487,5.0  rue de tracy
94,1067,"dentelles, tules, crêpes et blondes (fabr et march de)",1820,"almanach du commerce de Paris, des départemens de la France, et des principales villes du monde, de Jean de la Tynna ; continué et mis dans un meilleur ordre par S. Bottin, XXIIIe année, année 1820.",B1820,,,"fazy, t.m. michel & cie",,,,,,"dépôt de tules, dentelles fil et coton de toute largeur de la fabrique de thomassin corbitt & co, de douay",,,rue,,saint honoré,248.0,,,,,,,,,,precise_geocoding,jacoubet_paris,1,2.3343826482177796,48.863784976813,248.0  rue  saint honoré
95,1081,"dentelles, tules, crêpes et blondes (fabr et march de)",1820,"almanach du commerce de Paris, des départemens de la France, et des principales villes du monde, de Jean de la Tynna ; continué et mis dans un meilleur ordre par S. Bottin, XXIIIe année, année 1820.",B1820,,,lebreton,,,,,,fab à balleroy (calvados) ; dépôt,,,rue,,montmartre,76.0,,,,,,,,,,precise_geocoding,jacoubet_paris,1,2.3446086658686496,48.8659172625617,76.0  rue  montmartre
96,1098,"dentelles, tules, crêpes et blondes (fabr et march de)",1820,"almanach du commerce de Paris, des départemens de la France, et des principales villes du monde, de Jean de la Tynna ; continué et mis dans un meilleur ordre par S. Bottin, XXIIIe année, année 1820.",B1820,,,person,,,,,,"march, de tules brodés",,,rue,,saint denis,213.0,,,,,,,,,,precise_geocoding,jacoubet_paris,1,2.34996764567782,48.864020460797796,213.0  rue  saint denis
97,1099,"dentelles, tules, crêpes et blondes (fabr et march de)",1820,"almanach du commerce de Paris, des départemens de la France, et des principales villes du monde, de Jean de la Tynna ; continué et mis dans un meilleur ordre par S. Bottin, XXIIIe année, année 1820.",B1820,,,"pitard, j.b.",,,,,,fab,,,rue,,quincampoix,19.0,,,,,,,,,,precise_geocoding,jacoubet_paris,1,2.3504297574883197,48.8611135257866,19.0  rue  quincampoix
98,1103,"dentelles, tules, crêpes et blondes (fabr et march de)",1820,"almanach du commerce de Paris, des départemens de la France, et des principales villes du monde, de Jean de la Tynna ; continué et mis dans un meilleur ordre par S. Bottin, XXIIIe année, année 1820.",B1820,,,richier,,,,,,,,,rue,,saint marc,16.0,,,,,,,,,,precise_geocoding,jacoubet_paris,1,2.3407275163723997,48.870471378383506,16.0  rue  saint marc
99,1122,"dentelles, tulles, crêpes et blondes (fabricans et marchands de)",1835,"almanach du commerce de Paris, des départemens de la France, et des principales villes du monde, de Jean de la Tynna ; continué et progressivement amélioré par S. Bottin, XXXVIIIe année, année 1835.",B1835,,,bourdanchon aîné,,,,,,fab dent noires et blanches au puy,,,impasse,des,bourdonnais,6.0,,,,,,,,,,precise_geocoding,jacoubet_paris,1,2.3447276958166,48.8606235176019,6.0  impasse des bourdonnais
100,1126,"dentelles, tulles, crêpes et blondes (fabricans et marchands de)",1835,"almanach du commerce de Paris, des départemens de la France, et des principales villes du monde, de Jean de la Tynna ; continué et progressivement amélioré par S. Bottin, XXXVIIIe année, année 1835.",B1835,,,"champailler ; bodart, abel choisnart & co",,,,,,fab tulle bobin à calais ; représentés par henriot,,,rue,,saint denis,367.0,,,,,,,,,,precise_geocoding,jacoubet_paris,1,2.3518273648825296,48.86857781814221,367.0  rue  saint denis
101,1127,"dentelles, tulles, crêpes et blondes (fabricans et marchands de)",1835,"almanach du commerce de Paris, des départemens de la France, et des principales villes du monde, de Jean de la Tynna ; continué et progressivement amélioré par S. Bottin, XXXVIIIe année, année 1835.",B1835,,,charliat,,,,,,"fourniss de la reine du portugal et de la duchesse de bragance, fab blondes à chantilly, canezous montés et articles de nouveautés",,,rue,,vivienne,12.0,,,,,,,,,,precise_geocoding,jacoubet_paris,1,2.33933621174364,48.8675903344911,12.0  rue  vivienne
102,1458,dentelles et blondes (marchands de),1815,,B1815,,,manchon,ve,,,,,dépôt de dentelles de sa fabrique de caen,,,rue,du,mail,13.0,,,,,mail,3.0,,,,precise_geocoding,jacoubet_paris,1,2.34213882115877,48.866720559199294,13.0  rue du mail
103,1138,"dentelles, tulles, crêpes et blondes (fabricans et marchands de)",1835,"almanach du commerce de Paris, des départemens de la France, et des principales villes du monde, de Jean de la Tynna ; continué et progressivement amélioré par S. Bottin, XXXVIIIe année, année 1835.",B1835,,,delasalle,,,,,,blanchit la blonde sans la mouiller et lui rend tout son brillant,,,rue,,richelieu,93.0,,,,,,,,,,precise_geocoding,jacoubet_paris,1,2.33877061526219,48.869693649728795,93.0  rue  richelieu
104,1142,"dentelles, tulles, crêpes et blondes (fabricans et marchands de)",1835,"almanach du commerce de Paris, des départemens de la France, et des principales villes du monde, de Jean de la Tynna ; continué et progressivement amélioré par S. Bottin, XXXVIIIe année, année 1835.",B1835,,,d'ocagne & fils,,,,,,fab à alençon,,,rue,,neuve des petits champs,35.0,,,,,,,,,,precise_geocoding,jacoubet_paris,1,2.33643485847818,48.866798824355605,35.0  rue  neuve des petits champs
105,1145,"dentelles, tulles, crêpes et blondes (fabricans et marchands de)",1835,"almanach du commerce de Paris, des départemens de la France, et des principales villes du monde, de Jean de la Tynna ; continué et progressivement amélioré par S. Bottin, XXXVIIIe année, année 1835.",B1835,,,"dubois, james",,,,,,"fab au puy dentelles en fil, dentelles soie noire et blondes de soie noires et blanches, articles pour les îles",,,rue,des,deux portes saint sauveur,16.0,,,,,,,,,,precise_geocoding,jacoubet_paris,1,2.3487042010771098,48.865588711279294,16.0  rue des deux portes saint sauveur
106,1157,"dentelles, tulles, crêpes et blondes (fabricans et marchands de)",1835,"almanach du commerce de Paris, des départemens de la France, et des principales villes du monde, de Jean de la Tynna ; continué et progressivement amélioré par S. Bottin, XXXVIIIe année, année 1835.",B1835,,,gleizal,,,,,,"fab blondes et dentelles, grand choix d'objets de modes confectionnés, rue dauphine 33 et castiglione 12; fab à luzarches et maison à beaucaire",,,rue,,castiglione,12.0,,,,,,,,,,precise_geocoding,jacoubet_paris,1,2.32841600017517,48.8663050706099,12.0  rue  castiglione
107,1158,"dentelles, tulles, crêpes et blondes (fabricans et marchands de)",1835,"almanach du commerce de Paris, des départemens de la France, et des principales villes du monde, de Jean de la Tynna ; continué et progressivement amélioré par S. Bottin, XXXVIIIe année, année 1835.",B1835,,,gosselin meresse,,,,,,"tulles, broderies",,,rue,du,bac,120.0,,,,,,,,,,precise_geocoding,jacoubet_paris,1,2.3234315557119705,48.851810862693604,120.0  rue du bac
108,1165,"dentelles, tulles, crêpes et blondes (fabricans et marchands de)",1835,"almanach du commerce de Paris, des départemens de la France, et des principales villes du monde, de Jean de la Tynna ; continué et progressivement amélioré par S. Bottin, XXXVIIIe année, année 1835.",B1835,,,"hennecart, j.",,,,,,"succ de monnot leroy frères, fab blondes gazes",,,rue,,thévenot,14.0,,,,,,,,,,precise_geocoding,jacoubet_paris,1,2.3488787305948304,48.866871367244606,14.0  rue  thévenot
109,1176,"dentelles, tulles, crêpes et blondes (fabricans et marchands de)",1835,"almanach du commerce de Paris, des départemens de la France, et des principales villes du monde, de Jean de la Tynna ; continué et progressivement amélioré par S. Bottin, XXXVIIIe année, année 1835.",B1835,,,laruaz tribout,,,,,,"fab brev de broderies, blondes et dentelles de flandre",,,passage,des,petits pères,9.0,,,,,,,,,,precise_geocoding,jacoubet_paris,1,2.34030771484144,48.8664962333069,9.0  passage des petits pères
110,1184,"dentelles, tulles, crêpes et blondes (fabricans et marchands de)",1835,"almanach du commerce de Paris, des départemens de la France, et des principales villes du monde, de Jean de la Tynna ; continué et progressivement amélioré par S. Bottin, XXXVIIIe année, année 1835.",B1835,,,lefebvre,,,,,,"fab blonde à caens, voiles, mantilles, robes, écharpes, etc.",,,rue,du,mail,37.0,,,,,,,,,,precise_geocoding,jacoubet_paris,1,2.3437184496401198,48.8673478525467,37.0  rue du mail
111,1482,dentelles et blondes (marchands de),1815,,B1815,,,hussenot ducasse,,,,,,,,,rue,,saint martin,104.0,,,,,sainte avoie,7.0,,,,precise_geocoding,jacoubet_paris,1,2.35205760619914,48.862425022300904,104.0  rue  saint martin
112,1197,"dentelles, tulles, crêpes et blondes (fabricans et marchands de)",1835,"almanach du commerce de Paris, des départemens de la France, et des principales villes du monde, de Jean de la Tynna ; continué et progressivement amélioré par S. Bottin, XXXVIIIe année, année 1835.",B1835,,,"naves, félix & co",,,,,,"entrepôt de tulles, brod, dentelles",,,rue,des,bourdonnais,8.0,,,,,,,,,,precise_geocoding,jacoubet_paris,1,2.3450021290777903,48.859910349949395,8.0  rue des bourdonnais
113,1219,"dentelles, tulles, crêpes et blondes (fabricans et marchands de)",1835,"almanach du commerce de Paris, des départemens de la France, et des principales villes du monde, de Jean de la Tynna ; continué et progressivement amélioré par S. Bottin, XXXVIIIe année, année 1835.",B1835,,,seclet vancutsem,,,,,,"dépôt des apllications de bruxelles de la fab meeûs vanderborcht, et des dentelles de lille et valenciennes de malmazet masse de lille",,,rue,du,sentier,10.0,,,,,,,,,,precise_geocoding,jacoubet_paris,1,2.34608632981181,48.8695454827905,10.0  rue du sentier
114,1222,"dentelles, tulles, crêpes et blondes (fabricans et marchands de)",1835,"almanach du commerce de Paris, des départemens de la France, et des principales villes du monde, de Jean de la Tynna ; continué et progressivement amélioré par S. Bottin, XXXVIIIe année, année 1835.",B1835,,,"thomas, mad",,,,,,,,,rue,,monthabor,36.0,,,,,,,,,,precise_geocoding,poubelle_municipal_paris,1,2.3262743213067796,48.8665061715482,36.0  rue  monthabor
115,1240,"dentelles, tulles, crêpes, blondes (fabr. et march. de)",1845,"Annuaire du commerce et de l'industrie, de la magistrature et de l'administration, ou almanach des 500 000 adresses, punlié par Firmin Didot Frères, 1845, 8ème année de la publication.",B1845,,,bellart ; louys & delcambre,,,,,,fab de dentelles et blondes de chantilly et de caen,,,rue,,choiseul,2.0,ter,,,,,,,,,precise_geocoding,jacoubet_paris,1,2.3359884148335,48.8691995403232,2.0 ter rue  choiseul
116,1241,"dentelles, tulles, crêpes, blondes (fabr. et march. de)",1845,"Annuaire du commerce et de l'industrie, de la magistrature et de l'administration, ou almanach des 500 000 adresses, punlié par Firmin Didot Frères, 1845, 8ème année de la publication.",B1845,fab à caen,,bellenger-lefrançois,,,,,,"fab tulles brodés, fab à caen",,,rue,,petit carreau,18.0,,,,,,,,,,precise_geocoding,jacoubet_paris,1,2.3472326910332098,48.8669437775515,18.0  rue  petit carreau
117,1248,"dentelles, tulles, crêpes, blondes (fabr. et march. de)",1845,"Annuaire du commerce et de l'industrie, de la magistrature et de l'administration, ou almanach des 500 000 adresses, punlié par Firmin Didot Frères, 1845, 8ème année de la publication.",B1845,,,boiget,,,,,,,,,passage,,vendéme,27.0,,,,,,,,,,precise_geocoding,poubelle_paris,1,2.3643072,48.866417799986294,27.0  passage  vendéme
118,1255,"dentelles, tulles, crêpes, blondes (fabr. et march. de)",1845,"Annuaire du commerce et de l'industrie, de la magistrature et de l'administration, ou almanach des 500 000 adresses, punlié par Firmin Didot Frères, 1845, 8ème année de la publication.",B1845,,,brosset,,,,,,,,,boulevard,,bonne nouvelle,31.0,,,,,,,,,,precise_geocoding,jacoubet_paris,1,2.3488135748606402,48.870392237672604,31.0  boulevard  bonne nouvelle
119,1261,"dentelles, tulles, crêpes, blondes (fabr. et march. de)",1845,"Annuaire du commerce et de l'industrie, de la magistrature et de l'administration, ou almanach des 500 000 adresses, punlié par Firmin Didot Frères, 1845, 8ème année de la publication.",B1845,,en gros,chaulay & rainville,,,,,,tulles en gros,,,rue,des,fossés montmartre,31.0,,,,,,,,,,precise_geocoding,jacoubet_paris,1,2.3439270835751,48.8668623570006,31.0  rue des fossés montmartre
120,1460,dentelles et blondes (marchands de),1815,,B1815,,,"leblond, p & lange",,,,,,et articles manufacturés en France pour l'exportation,,,rue,,ménart,6.0,,,,,feydeau,2.0,,,,precise_geocoding,osm_paris,1,2.3380949427230497,48.8695179713044,6.0  rue  ménart
121,1275,"dentelles, tulles, crêpes, blondes (fabr. et march. de)",1845,"Annuaire du commerce et de l'industrie, de la magistrature et de l'administration, ou almanach des 500 000 adresses, punlié par Firmin Didot Frères, 1845, 8ème année de la publication.",B1845,et au puy,,courtial,,,,,,,,,rue,,thévenot,5.0,,,,,,,,,,precise_geocoding,jacoubet_paris,1,2.35037564582077,48.8665185345306,5.0  rue  thévenot
122,1290,"dentelles, tulles, crêpes, blondes (fabr. et march. de)",1845,"Annuaire du commerce et de l'industrie, de la magistrature et de l'administration, ou almanach des 500 000 adresses, punlié par Firmin Didot Frères, 1845, 8ème année de la publication.",B1845,,dépôt delplanque-malmazet,desmottes-paquet,,,,,,"dépôt des dentelles en fil et application de bruxelles, des fabriques de deplanque-malmazet",,,rue,,breda,26.0,,,,,,,,,,precise_geocoding,poubelle_municipal_paris,1,2.33762627624583,48.8804240844036,26.0  rue  breda
123,1292,"dentelles, tulles, crêpes, blondes (fabr. et march. de)",1845,"Annuaire du commerce et de l'industrie, de la magistrature et de l'administration, ou almanach des 500 000 adresses, punlié par Firmin Didot Frères, 1845, 8ème année de la publication.",B1845,fab à alençon (orne),,d'ocagne fils,,,,,,point d'alençon ; fab à alençon (orne),,,rue,,neuve des petits champs,35.0,,,,,,,,,,precise_geocoding,jacoubet_paris,1,2.33643485847818,48.866798824355605,35.0  rue  neuve des petits champs
124,2106,draps (fabr. et march. de),1845,,DRA1845,,,passajon & amand,,,,,3.0,,,,place,de la,bourse,,,,,,,,,,,precise_geocoding,poubelle_municipal_paris,1,2.34045831251682,48.8687633416889,  place de la bourse
125,1324,"dentelles, tulles, crêpes, blondes (fabr. et march. de)",1845,"Annuaire du commerce et de l'industrie, de la magistrature et de l'administration, ou almanach des 500 000 adresses, punlié par Firmin Didot Frères, 1845, 8ème année de la publication.",B1845,,,granier,,,,,,dentelles,,,rue,,sainte anne,14.0,,,,,,,,,,precise_geocoding,jacoubet_paris,1,2.33503199380338,48.865166758738205,14.0  rue  sainte anne
126,1333,"dentelles, tulles, crêpes, blondes (fabr. et march. de)",1845,"Annuaire du commerce et de l'industrie, de la magistrature et de l'administration, ou almanach des 500 000 adresses, punlié par Firmin Didot Frères, 1845, 8ème année de la publication.",B1845,,,jaume,,,,,,,,,rue,,tournon,9.0,,,,,,,,,,precise_geocoding,jacoubet_paris,1,2.33717072753469,48.851003930728396,9.0  rue  tournon
127,1337,"dentelles, tulles, crêpes, blondes (fabr. et march. de)",1845,"Annuaire du commerce et de l'industrie, de la magistrature et de l'administration, ou almanach des 500 000 adresses, punlié par Firmin Didot Frères, 1845, 8ème année de la publication.",B1845,maisons à caen et au havre,,"keenan, j.",,,,,,"dentelles brodées, genre nouveau, blondes, tulles unis et fantaisies de sa fabrique de caen ; maisons à caen et au havre",,,rue,,mail,29.0,,,,,,,,,,precise_geocoding,jacoubet_paris,1,2.34318533107993,48.8671169023944,29.0  rue  mail
128,1339,"dentelles, tulles, crêpes, blondes (fabr. et march. de)",1845,"Annuaire du commerce et de l'industrie, de la magistrature et de l'administration, ou almanach des 500 000 adresses, punlié par Firmin Didot Frères, 1845, 8ème année de la publication.",B1845,fab à caen,,lajonquière,,,,,,"dentelles de flandres, d'auvergne et de lorraine ; fab à caen",,,rue,,cléry,27.0,,,,,,,,,,precise_geocoding,jacoubet_paris,1,2.34711806192488,48.8683665195793,27.0  rue  cléry
129,1347,"dentelles, tulles, crêpes, blondes (fabr. et march. de)",1845,"Annuaire du commerce et de l'industrie, de la magistrature et de l'administration, ou almanach des 500 000 adresses, punlié par Firmin Didot Frères, 1845, 8ème année de la publication.",B1845,,,lassalle,,,,,,,,,passage,des,panoramas,54.0,,,,,,,,,,precise_geocoding,jacoubet_paris,1,2.34165832625412,48.8711222413285,54.0  passage des panoramas
130,1349,"dentelles, tulles, crêpes, blondes (fabr. et march. de)",1845,"Annuaire du commerce et de l'industrie, de la magistrature et de l'administration, ou almanach des 500 000 adresses, punlié par Firmin Didot Frères, 1845, 8ème année de la publication.",B1845,fab au puy,,"leblanc, léonard",,,,,,"blondes, dentelles noires et blanches, tulles brodés ; fab au puy",,,rue,,saint denis,300.0,,,,,,,,,,precise_geocoding,jacoubet_paris,1,2.35094760365648,48.866247649362705,300.0  rue  saint denis
131,1355,"dentelles, tulles, crêpes, blondes (fabr. et march. de)",1845,"Annuaire du commerce et de l'industrie, de la magistrature et de l'administration, ou almanach des 500 000 adresses, punlié par Firmin Didot Frères, 1845, 8ème année de la publication.",B1845,fab à caen et au puy,,"lefebure, constant",,,,,,fab de blondes et dentelles noires ; fab à caen et au puy,,,rue,,neuve saint eustache,13.0,,,,,,,,,,precise_geocoding,jacoubet_paris,1,2.3451739663457003,48.86726851594871,13.0  rue  neuve saint eustache
132,1392,"dentelles, tulles, crêpes, blondes (fabr. et march. de)",1845,"Annuaire du commerce et de l'industrie, de la magistrature et de l'administration, ou almanach des 500 000 adresses, punlié par Firmin Didot Frères, 1845, 8ème année de la publication.",B1845,,dépôt,opigez ; chazelle & cie,,,,,,"dépôt de dentelles de bruxelles, chantilly et caen",,,rue,,richelieu,93.0,,,,,,,,,,precise_geocoding,jacoubet_paris,1,2.33877061526219,48.869693649728795,93.0  rue  richelieu
133,1403,"dentelles, tulles, crêpes, blondes (fabr. et march. de)",1845,"Annuaire du commerce et de l'industrie, de la magistrature et de l'administration, ou almanach des 500 000 adresses, punlié par Firmin Didot Frères, 1845, 8ème année de la publication.",B1845,,,peyre d'alairac,,,,,,"manufacture de dentelles de bruxelles, objets de fantaisie, dentelles diverses, fleurs, tulles-réseaux et fils assortis pour application ; application et mise à neuf des ouvrages anciens, articles d'expédition et d'exportation",,,rue,,mazagran,9.0,,,,,,,,,,precise_geocoding,poubelle_paris,1,2.35165422647691,48.8708225781742,9.0  rue  mazagran
134,1409,"dentelles, tulles, crêpes, blondes (fabr. et march. de)",1845,"Annuaire du commerce et de l'industrie, de la magistrature et de l'administration, ou almanach des 500 000 adresses, punlié par Firmin Didot Frères, 1845, 8ème année de la publication.",B1845,fab à inchy (nord),,postole ; collard & cie,,,,,,fab à inchy (nord),,,rue,,montorgueil,57.0,,,,,,,,,,precise_geocoding,jacoubet_paris,1,2.3466997972388,48.8653409433659,57.0  rue  montorgueil
135,1411,"dentelles, tulles, crêpes, blondes (fabr. et march. de)",1845,"Annuaire du commerce et de l'industrie, de la magistrature et de l'administration, ou almanach des 500 000 adresses, punlié par Firmin Didot Frères, 1845, 8ème année de la publication.",B1845,,,pozzo-roussel,,,,,,ouvrière en dentelles,,,rue,,paix,4.0,bis,,,,,,,,,precise_geocoding,jacoubet_paris,1,2.33076988789086,48.8686548093869,4.0 bis rue  paix
136,1430,"dentelles, tulles, crêpes, blondes (fabr. et march. de)",1845,"Annuaire du commerce et de l'industrie, de la magistrature et de l'administration, ou almanach des 500 000 adresses, punlié par Firmin Didot Frères, 1845, 8ème année de la publication.",B1845,,,trigault,,,,,,réparation et application,,,rue,,bleue,30.0,,,,,,,,,,precise_geocoding,jacoubet_paris,1,2.34478516620875,48.876039957193605,30.0  rue  bleue
137,1443,"dentelles, tulles, crêpes, blondes (fabr. et march. de)",1845,"Annuaire du commerce et de l'industrie, de la magistrature et de l'administration, ou almanach des 500 000 adresses, punlié par Firmin Didot Frères, 1845, 8ème année de la publication.",B1845,fab à courseulles (calvados),,"violard, g.",,,,,,fab à courseulles (calvados),,,rue,,choiseul,2.0,bis,,,,,,,,,precise_geocoding,jacoubet_paris,1,2.3359884148335,48.8691995403232,2.0 bis rue  choiseul
138,1446,"dentelles, tulles, crêpes, blondes (fabr. et march. de)",1845,"Annuaire du commerce et de l'industrie, de la magistrature et de l'administration, ou almanach des 500 000 adresses, punlié par Firmin Didot Frères, 1845, 8ème année de la publication.",B1845,fab à douay,,widdowson & bailey fils,,,,,,fab tulle bobin et fantaisies dentelles à douay,,,rue,,saint fiacre,3.0,,,,,,,,,,precise_geocoding,poubelle_municipal_paris,1,2.34549697247874,48.8703481079589,3.0  rue  saint fiacre
139,2107,draps (fabr. et march. de),1845,,DRA1845,,,passajon & amand,,,,,3.0,,,,,,filles saint thomas,11.0,,,,,,,,,,precise_geocoding,jacoubet_paris,1,2.34045942806318,48.8687628830849,11.0    filles saint thomas
140,1509,"dentelles, tules, crêpes et blondes (fabr et march de)",1820,,,,,barty,,,,,,march,,,rue,,meslay,32.0,,,,,saint martin des champs,6.0,,,,precise_geocoding,jacoubet_paris,1,2.3591907719345,48.867972846964996,32.0  rue  meslay
141,1520,"dentelles, tules, crêpes et blondes (fabr et march de)",1820,,,,,billot & viguerie,viguerie ve,,,,,fab de blondes et tules de soie,,,rue,,sainte appoline,12.0,,,,,porte saint denis,6.0,,,,precise_geocoding,jacoubet_paris,1,2.35389222244171,48.8689987841465,12.0  rue  sainte appoline
142,1521,"dentelles, tules, crêpes et blondes (fabr et march de)",1820,,,,,symon & crevat,simon ve,,,,,march,,,rue,,bourg l'abbé,5.0,,,,,porte saint denis,6.0,,,,precise_geocoding,jacoubet_paris,1,2.35093029914356,48.8636489166235,5.0  rue  bourg l'abbé
143,1526,"dentelles, tules, crêpes et blondes (fabr et march de)",1820,,,,,lécuyer,,,,,,march,,,,,cloître saint jacques l'hôpital,2.0,,,,,montorgueil,5.0,,,,precise_geocoding,jacoubet_paris,1,2.34862038840668,48.8630057746387,2.0    cloître saint jacques l'hôpital
144,1593,"dentelles, tules, crêpes et blondes (fabricans et marchands de)",1825,,B1825,,,violard,,,,,,"dépôt de blondes et dentelles de leur fab de courseulle, près caen",,,,,cour batave,16.0,,,,,lombards,6.0,,,,precise_geocoding,jacoubet_paris,1,2.34934431999838,48.8612388553739,16.0    cour batave
145,1603,"dentelles, tules, crêpes et blondes (fabricans et marchands de)",1825,,B1825,,,"orry, mad",,,,,,mde en gros,,,rue,,vivienne,7.0,,,,,mail,3.0,,,,precise_geocoding,jacoubet_paris,1,2.33917394855356,48.867700965903595,7.0  rue  vivienne
146,1613,"dentelles, tules, crêpes et blondes (fabricans et marchands de)",1825,,B1825,,,"blondel, hyacynthe",,,,,,dépôt de flandres,,,rue,de,cléry,34.0,,,,,montmartre,3.0,,,,precise_geocoding,jacoubet_paris,1,2.34630985591219,48.8679950479821,34.0  rue de cléry
147,1628,"dentelles, tules, crêpes et blondes (fabricans et marchands de)",1825,,B1825,,,sanche,,,,,,dépôt de tulle de coton et art de broderies,,,rue,,saint denis,189.0,,,,,montorgueil,5.0,,,,precise_geocoding,jacoubet_paris,1,2.3496963824911,48.863345134004405,189.0  rue  saint denis
148,1652,"dentelles, tulles, crêpes, blondes (fabricans et marchands de)",1830,,B1830,,,bimont otto,,,,,,"fab dentelles noires, blondes, tulles de soie, broderie au passé sur tulle",,,rue,du,faubourg saint denis,14.0,,,,,faubourg saint denis,5.0,,,,precise_geocoding,jacoubet_paris,1,2.3531036315690494,48.8704731321929,14.0  rue du faubourg saint denis
149,1675,"dentelles, tulles, crêpes, blondes (fabricans et marchands de)",1830,,B1830,,,"pelecat, ch",,,,,,"blondes, tulles, etc.",,,rue,de,grammont,11.0,,,,,feydeau,2.0,,,,precise_geocoding,jacoubet_paris,1,2.3367587521121003,48.86983215612079,11.0  rue de grammont
150,1677,"dentelles, tulles, crêpes, blondes (fabricans et marchands de)",1830,,B1830,,,"vaslin bimont, mad",,,,,,,B1827,,rue,,notre dame des victoires,15.0,,,,,feydeau,2.0,,,,precise_geocoding,jacoubet_paris,1,2.3416516024542497,48.8683782436427,15.0  rue  notre dame des victoires
151,1685,"dentelles, tulles, crêpes, blondes (fabricans et marchands de)",1830,,B1830,,,"gosselin, mad",,,,,,dépôt de tulles de coton,,,rue,,quincampoix,16.0,,,,,lombards,6.0,,,,precise_geocoding,jacoubet_paris,1,2.35046306233559,48.8609457072315,16.0  rue  quincampoix
152,1698,"dentelles, tulles, crêpes, blondes (fabricans et marchands de)",1830,,B1830,,,laruaz tribout,,,,,,"fab broderies, blondes et dentelles de flandre, dépôt de ch. Paisant fils & co de caen",B1827,,passage,des,petits pères,9.0,,,,,mail,3.0,,,,precise_geocoding,jacoubet_paris,1,2.34030771484144,48.8664962333069,9.0  passage des petits pères
153,1710,"dentelles, tulles, crêpes, blondes (fabricans et marchands de)",1830,,B1830,,,mouton,,,,,,md,,,rue,de,cléry,12.0,,,,,montmartre,3.0,,,,precise_geocoding,jacoubet_paris,1,2.34498833073821,48.8675622191088,12.0  rue de cléry
154,1712,"dentelles, tulles, crêpes, blondes (fabricans et marchands de)",1830,,B1830,,,"boucqué carette, j.m. & co",,,,,,"fab dent de lille, bordures et picots en fil, tulles coton unis et brodés",,,rue,,neuve saint eustache,39.0,,,,,montmartre,3.0,,,,precise_geocoding,jacoubet_paris,1,2.34666989305608,48.8677407178753,39.0  rue  neuve saint eustache
155,1725,"dentelles, tulles, crêpes, blondes (fabricans et marchands de)",1830,,B1830,,,"ledreux, ch",,,,,,"de lyon, tulles de soie filoche et maille fixe, gazes, crêpes, etc., tulles de coton assis et brodés ; broder en tout genre",,,,,cloître saint jacques l'hôpital,8.0,,,,,montorgueil,5.0,,,,precise_geocoding,jacoubet_paris,1,2.3489001385569703,48.863539027358996,8.0    cloître saint jacques l'hôpital
156,1734,"dentelles, tulles, crêpes, blondes (fabricans et marchands de)",1830,,B1830,,,lacour,,,,,,en gros,,,rue,,saint denis,187.0,,,,,montorgueil,5.0,,,,precise_geocoding,jacoubet_paris,1,2.34966936710164,48.8632973066358,187.0  rue  saint denis
157,1738,"dentelles, tulles, crêpes, blondes (fabricans et marchands de)",1830,,B1830,,,gruié,,,,,,dépôt de tulles de coton,,,rue,,saint denis,227.0,,,,,montorgueil,5.0,,,,precise_geocoding,jacoubet_paris,1,2.35004571233056,48.8643775942957,227.0  rue  saint denis
158,1774,"dentelles, tulles, crêpes, blondes (fabricans et marchands de)",1840,,B1840,,,rousselle & troy,,,,,,blondes,,,rue,,hauteville,37.0,,,,,faubourg poissonnière,3.0,,,,precise_geocoding,poubelle_municipal_paris,1,2.35061526399046,48.8746065114835,37.0  rue  hauteville
159,1777,"dentelles, tulles, crêpes, blondes (fabricans et marchands de)",1840,,B1840,,,"violard, g",,,,,,"dentelles de toutes espèces, malines, valenciennes, angleterre et bruxelles ; fabrique en France toutes espèces de dentelles en fil de lin, et guipures, blondes et dentelles de soies noires et blanches, particulièrement les beaux articles comme robes,",B1834 ; O de l'académie de l'industrie 1837 et 1839 ; fabrique à courseulles (calvados),,rue,,choiseul,2.0,bis,,,,feydeau,2.0,,,,precise_geocoding,jacoubet_paris,1,2.3359884148335,48.8691995403232,2.0 bis rue  choiseul
160,1778,"dentelles, tulles, crêpes, blondes (fabricans et marchands de)",1840,,B1840,,,grainville,,,,,,,,,rue,des,jeuneurs,1.0,bis,,,,montmartre,3.0,,,,precise_geocoding,jacoubet_paris,1,2.3455723769820698,48.8692313301911,1.0 bis rue des jeuneurs
161,1821,"dentelles, tulles, crêpes, blondes (fabricans et marchands de)",1840,,B1840,,,ignard,,,,,,,,,rue,,croix des petits champs,21.0,,,,,banque,4.0,,,,precise_geocoding,jacoubet_paris,1,2.33955645562306,48.8633108134385,21.0  rue  croix des petits champs
162,1839,"dentelles, tulles, crêpes, blondes (fabricans et marchands de)",1840,,B1840,,,flamant-bouquet,,,,,,et tulles,,,rue,,ponceau,26.0,,,,,porte saint denis,6.0,,,,precise_geocoding,jacoubet_paris,1,2.3531994208355203,48.8676127724127,26.0  rue  ponceau
163,1843,"dentelles, tulles, crêpes, blondes (fabricans et marchands de)",1840,,B1840,,,ferrières,mme,,,,2.0,et broderies,,,rue,,saint pierre montmartre,5.0,,,,,mail,3.0,,,,precise_geocoding,jacoubet_paris,1,2.3419383035448598,48.867617582473095,5.0  rue  saint pierre montmartre
164,1858,"dentelles, tulles, crêpes, blondes (fabricans et marchands de)",1840,,B1840,,,coué,,,,,,"tulles de soie, voiles et nouveautés",,,rue,,cléry,1.0,,,,,montmartre,3.0,,,,precise_geocoding,jacoubet_paris,1,2.34408771644677,48.867417200537794,1.0  rue  cléry
165,1878,"dentelles, tulles, crêpes, blondes (fabricans et marchands de)",1840,,B1840,,,leboulanger,,,,,,fab blondes et dentelles,,,rue,du,mail,24.0,,,,,mail,3.0,,,,precise_geocoding,jacoubet_paris,1,2.3430767754173396,48.8669596375813,24.0  rue du mail
166,1887,"dentelles, tulles, crêpes, blondes (fabricans et marchands de)",1840,,B1840,,,d'ocagne & fils,,,,,,et tulles,"A1819, A1823, A1827 et 1834",,rue,,neuve des petits champs,35.0,,,,,palais royal,2.0,,,,precise_geocoding,jacoubet_paris,1,2.33643485847818,48.866798824355605,35.0  rue  neuve des petits champs
167,1892,"dentelles, tulles, crêpes, blondes (fabricans et marchands de)",1840,,B1840,,,lefort,,,,,,tulles et blondes de coton,,,rue,,neuve saint eustache,5.0,,,,,montmartre,3.0,,,,precise_geocoding,jacoubet_paris,1,2.3446245612957597,48.8670867147646,5.0  rue  neuve saint eustache
168,1898,"dentelles, tulles, crêpes, blondes (fabricans et marchands de)",1840,,B1840,,,tardent pirlet,,,,,,dentelles de bruxelles,,,rue,,richelieu,60.0,,,,,feydeau,2.0,,,,precise_geocoding,jacoubet_paris,1,2.3383433916614504,48.8684418044014,60.0  rue  richelieu
169,1916,"dentelles, tulles, crêpes, blondes (fabricans et marchands de)",1840,,B1840,,,paulus,,,,,,,,,rue,,saint martin,101.0,,,,,lombards,6.0,,,,precise_geocoding,jacoubet_paris,1,2.35162368208737,48.8619774431173,101.0  rue  saint martin
170,1937,draps (fabr. et march. de),1845,,DRA1845,,,bacuet & cie,,,,,,,,,,,bons enfants,24.0,,,,,,,,,,precise_geocoding,Jacoubet_Paris,1,2.33863612465712,48.86351883094849,24.0    bons enfants
171,1938,draps (fabr. et march. de),1845,,DRA1845,,,baisson,,,,,,draps en gros,,,,,tirechappe,9.0,,,,,,,,,,precise_geocoding,jacoubet_paris,1,2.34412678088754,48.860360261115,9.0    tirechappe
172,1947,draps (fabr. et march. de),1845,,DRA1845,,fab à sedan,bertèche ; bonjean jeune & chesnon,croix de juillet,,,,,fab à sedan (ardennes),B1827 ; A1824-39 ; O1844,,,,fossés saint germain l'auxerrois,29.0,,,,,,,,,,precise_geocoding,jacoubet_paris,1,2.3416233302506404,48.86034225601129,29.0    fossés saint germain l'auxerrois
173,1960,draps (fabr. et march. de),1845,,DRA1845,,,brisset,,,,,,"draps de billard, nouveautés pour gilets et pantalons",,,,,saint honoré,68.0,,,,,,,,,,precise_geocoding,jacoubet_paris,1,2.3433547330659397,48.8613622929016,68.0    saint honoré
174,1961,draps (fabr. et march. de),1845,,DRA1845,,,"bruneau, l.",,"ancien associé de ratier, jh. & cie","ratier, jh. & cie",,,,,,,,vivienne,7.0,,,,,,,,,,precise_geocoding,jacoubet_paris,1,2.33917394855356,48.867700965903595,7.0    vivienne
175,1984,draps (fabr. et march. de),1845,,DRA1845,,,d'assas,,,,,,"en gros et par commiss. , casimirs et satins",,,,,bertin poirée,13.0,,,,,,,,,,precise_geocoding,jacoubet_paris,1,2.3450613967820897,48.8591896601215,13.0    bertin poirée
176,1993,draps (fabr. et march. de),1845,,DRA1845,,,"devisme, a.",,,,,,,,,,du,bouloy,22.0,,,,,,,,,,precise_geocoding,jacoubet_paris,1,2.3408283294008396,48.8636075697592,22.0   du bouloy
177,2019,draps (fabr. et march. de),1845,,DRA1845,,,"fressinet, h.",,,,,,,,,,,bons enfants,28.0,,,,,,,,,,precise_geocoding,Jacoubet_Paris,1,2.33882256404687,48.86385121237121,28.0    bons enfants
178,2027,draps (fabr. et march. de),1845,,DRA1845,,,"grandin, j. & cie",,,,,,draps de toutes fabriques,,,,,bourdonnais,14.0,,,,,,,,,,precise_geocoding,jacoubet_paris,1,2.34553174572734,48.8605609901591,14.0    bourdonnais
179,2037,draps (fabr. et march. de),1845,,DRA1845,,,hinstin,,,,,,draps de toutes fabriques,,,,,prouvaires,18.0,,,,,,,,,,precise_geocoding,jacoubet_paris,1,2.3444594411913,48.8621816153792,18.0    prouvaires
180,2038,draps (fabr. et march. de),1845,,DRA1845,,,honoré,,,,,,exportations de draps français et étrangers,,,,,bergére,13.0,,,,,,,,,,precise_geocoding,jacoubet_paris,1,2.34517203169829,48.872338257534,13.0    bergére
181,2055,draps (fabr. et march. de),1845,,DRA1845,,,lanavit,,,,,,"en gros par commission. et seul dépôt de piot & fils; Hte Nonnon, et Nonnon et fils de Sedan",,,,,mauvaises paroles,17.0,,,,,,,,,,precise_geocoding,jacoubet_paris,1,2.34547525509404,48.8595491095181,17.0    mauvaises paroles
182,2066,draps (fabr. et march. de),1845,,DRA1845,,,lemoine neveu & cie,,,,,,,,,,,harpe,117.0,,,,,,,,,,precise_geocoding,jacoubet_paris,1,2.3415648764075603,48.848558401890706,117.0    harpe
183,2073,draps (fabr. et march. de),1845,,DRA1845,,,legnereux & mulard,,,,,2.0,draperie et nouveautés pour hommes,,,,,richelieu,57.0,,,,,,,,,,precise_geocoding,poubelle_municipal_paris,1,2.33732882728943,48.8667104102108,57.0    richelieu
184,2074,draps (fabr. et march. de),1845,,DRA1845,,,livermans,,,,,,spécialement pour la confection de casquettes,,,,,sainte avoie,24.0,,,,,,,,,,precise_geocoding,jacoubet_paris,1,2.35444078903319,48.8600079554338,24.0    sainte avoie
185,2096,draps (fabr. et march. de),1845,,DRA1845,,,"moy, a.",,,,,,,,,,,coq saint honoré,8.0,,,,,,,,,,precise_geocoding,jacoubet_paris,1,2.33938558891307,48.861858656598905,8.0    coq saint honoré
186,2102,draps (fabr. et march. de),1845,,DRA1845,,,"parissot, g.",,,,,,,,,,,saint denis,12.0,,,,,,,,,,precise_geocoding,jacoubet_paris,1,2.34748950707956,48.8583104723026,12.0    saint denis
187,2123,draps (fabr. et march. de),1845,,DRA1845,,,poitevin,,,,,,,,,,,vieux augustins,10.0,,,,,,,,,,precise_geocoding,jacoubet_paris,1,2.3413307649950097,48.8648116626174,10.0    vieux augustins
188,2137,draps (fabr. et march. de),1845,,DRA1845,,,"samson, b.",,,,,,,,,,,saint honoré,30.0,,,,,,,,,,precise_geocoding,jacoubet_paris,1,2.34513477609657,48.8610277247888,30.0    saint honoré
189,2180,filatures de coton,1808,"Almanach du commerce de Paris, des départemens de l'empire français, et des principales villes du monde, par Jean de la Tynna, année 1808",FC1808,,,gombert père & comp,,,,,,"fabr de coton à broder, à tricoter et à marquer, mentionnés honorablement aux expositions des ans 10 et 1806",,,rue et barrière,de,sèvres,11.0,,,,près la barrière,,,,,,precise_geocoding,jacoubet_paris,1,2.32832361810114,48.8517052796156,11.0  rue et barrière de sèvres
190,2192,filatures de coton,1808,"Almanach du commerce de Paris, des départemens de l'empire français, et des principales villes du monde, par Jean de la Tynna, année 1808",FC1808,,,robin,,,,,,,,,rue,de,chaillot,65.0,,,,,,,,,,precise_geocoding,jacoubet_paris,1,2.29818266573451,48.868107401799094,65.0  rue de chaillot
191,2224,filatures de coton,1815,"Almanach du commerce de Paris, des départemens de l'empire français, et des principales villes du monde, par Jean de la Tynna, année 1815",FC1815,,,hurlot,,,,,,et fabrique de calicots et cotons à broder en tous genres,,,rue,du,banquier,1.0,,,,,,,,,,precise_geocoding,jacoubet_paris,1,2.3577506632841603,48.8361386657076,1.0  rue du banquier
192,2238,filatures de coton,1815,"Almanach du commerce de Paris, des départemens de l'empire français, et des principales villes du monde, par Jean de la Tynna, année 1815",FC1815,,,richard & lenoir dufresne,,,,,,"fabr de basin ; dépôt général de leurs divers établissements de filature et tissage, et de leur manufacture d'indienne de chantilly",,,rue,du,mail,5.0,,,,,,,,,,precise_geocoding,jacoubet_paris,1,2.34147772791759,48.8664481879149,5.0  rue du mail
193,2243,filatures de coton,1815,"Almanach du commerce de Paris, des départemens de l'empire français, et des principales villes du monde, par Jean de la Tynna, année 1815",FC1815,,,tissot,,,,,,et fabr de cornes à lanterne,,,petite rue,de,reuilly,12.0,,,,,,,,,,precise_geocoding,jacoubet_paris,1,2.38539396120219,48.8458237262998,12.0  petite rue de reuilly
194,2275,marchands de coton,1815,"Almanach du commerce de Paris, des départemens de l'empire français, et des principales villes du monde, par Jean de la Tynna, année 1815",E1815,,,maure hochereau,,,,,,"fabric de coton à broder, à tricoter et autres, et filateur de coton",,,rue,de,paradis,5.0,,,,,,,,,,precise_geocoding,jacoubet_paris,1,2.3548153710560897,48.8744350415793,5.0  rue de paradis
195,2283,fabricants étoffes de coton,1820,"almanach du commerce de Paris, des départemens de la France, et des principales villes du monde, de Jean de la Tynna ; continué et mis dans un meilleur ordre par S. Bottin, XXIIIe année, année 1820.",F,,,beaufrère,,,,,,fab de tissus de lin et coton ; voyez à l'art melun,,,rue,des,deux écus,9.0,,,,,,,,,,precise_geocoding,jacoubet_paris,1,2.3437628555554504,48.861991695193396,9.0  rue des deux écus
196,2288,fabricants étoffes de coton,1820,"almanach du commerce de Paris, des départemens de la France, et des principales villes du monde, de Jean de la Tynna ; continué et mis dans un meilleur ordre par S. Bottin, XXIIIe année, année 1820.",F,,,chereau,,,,,,calicots,,,,,chemin d'ivry,8.0,,,,,,,,,,precise_geocoding,osm_paris,1,2.36864785216824,48.8219806884792,8.0    chemin d'ivry
197,2301,marchands de coton et d'étoffes de coton,1820,"almanach du commerce de Paris, des départemens de la France, et des principales villes du monde, de Jean de la Tynna ; continué et mis dans un meilleur ordre par S. Bottin, XXIIIe année, année 1820.",EF1820,,,anquetin,,,,,,mousseline et batiste,,,rue,,quincampoix,11.0,,,,,,,,,,precise_geocoding,jacoubet_paris,1,2.3503282929068,48.860836519646796,11.0  rue  quincampoix
198,2305,marchands de coton et d'étoffes de coton,1820,"almanach du commerce de Paris, des départemens de la France, et des principales villes du monde, de Jean de la Tynna ; continué et mis dans un meilleur ordre par S. Bottin, XXIIIe année, année 1820.",EF1820,,,bienaimé,,,,,,cardé,,,rue,de,seine saint germain,46.0,,,,,,,,,,precise_geocoding,jacoubet_paris,1,2.3367930246410498,48.854433982546205,46.0  rue de seine saint germain
199,2309,marchands de coton et d'étoffes de coton,1820,"almanach du commerce de Paris, des départemens de la France, et des principales villes du monde, de Jean de la Tynna ; continué et mis dans un meilleur ordre par S. Bottin, XXIIIe année, année 1820.",EF1820,,,"bluteau, auguste",,,,,,"cotons en écrus, teints et blanchis",,,rue,de la,chanverrie,15.0,,,,,,,,,,precise_geocoding,jacoubet_paris,1,2.34854350362446,48.8623473596305,15.0  rue de la chanverrie
200,2312,marchands de coton et d'étoffes de coton,1820,"almanach du commerce de Paris, des départemens de la France, et des principales villes du monde, de Jean de la Tynna ; continué et mis dans un meilleur ordre par S. Bottin, XXIIIe année, année 1820.",EF1820,,,busquin,,,,,,en gros,,,rue,,quincampoix,60.0,,,,,,,,,,precise_geocoding,jacoubet_paris,1,2.35118331100466,48.8624636250134,60.0  rue  quincampoix
201,2317,marchands de coton et d'étoffes de coton,1820,"almanach du commerce de Paris, des départemens de la France, et des principales villes du monde, de Jean de la Tynna ; continué et mis dans un meilleur ordre par S. Bottin, XXIIIe année, année 1820.",EF1820,,,charité aîné,,,,,,coton filé,,,rue,,fontaine au roi,33.0,,,,,,,,,,precise_geocoding,jacoubet_paris,1,2.3721885381464998,48.86822486637429,33.0  rue  fontaine au roi
202,2320,marchands de coton et d'étoffes de coton,1820,"almanach du commerce de Paris, des départemens de la France, et des principales villes du monde, de Jean de la Tynna ; continué et mis dans un meilleur ordre par S. Bottin, XXIIIe année, année 1820.",EF1820,,,collart,,,,,,"cardé, fab d'ouates",,,rue,,bourg l'abbé,2.0,,,,,,,,,,precise_geocoding,jacoubet_paris,1,2.3509776870155497,48.8634127963084,2.0  rue  bourg l'abbé
203,2331,marchands de coton et d'étoffes de coton,1820,"almanach du commerce de Paris, des départemens de la France, et des principales villes du monde, de Jean de la Tynna ; continué et mis dans un meilleur ordre par S. Bottin, XXIIIe année, année 1820.",EF1820,,,"forestier, a",,,,,,cardé,,,rue,du,cygne,20.0,,,,,,,,,,precise_geocoding,jacoubet_paris,1,2.34854195417455,48.863415800028704,20.0  rue du cygne
204,2341,marchands de coton et d'étoffes de coton,1820,"almanach du commerce de Paris, des départemens de la France, et des principales villes du monde, de Jean de la Tynna ; continué et mis dans un meilleur ordre par S. Bottin, XXIIIe année, année 1820.",EF1820,,,guichenot,,,,,,et ouates,,,rue,,saint denis,303.0,,,,,,,,,,precise_geocoding,jacoubet_paris,1,2.35100183995833,48.8666452697619,303.0  rue  saint denis
205,2349,marchands de coton et d'étoffes de coton,1820,"almanach du commerce de Paris, des départemens de la France, et des principales villes du monde, de Jean de la Tynna ; continué et mis dans un meilleur ordre par S. Bottin, XXIIIe année, année 1820.",EF1820,,,jacob,,,,,,mousselines,,,rue,,mauconseil,14.0,,,,,,,,,,precise_geocoding,jacoubet_paris,1,2.348940244494,48.86389502841251,14.0  rue  mauconseil
206,2368,marchands de coton et d'étoffes de coton,1820,"almanach du commerce de Paris, des départemens de la France, et des principales villes du monde, de Jean de la Tynna ; continué et mis dans un meilleur ordre par S. Bottin, XXIIIe année, année 1820.",EF1820,,,palluel,,,,,,calicots,,,rue,,michel lecomte,14.0,,,,,,,,,,precise_geocoding,jacoubet_paris,1,2.35618326556376,48.8621485272853,14.0  rue  michel lecomte
207,2389,marchands d' étoffes de coton,1835,"almanach du commerce de Paris, des départemens de la France, et des principales villes du monde, de Jean de la Tynna ; continué et progressivement amélioré par S. Bottin, XXXVIIIe année, année 1835.",E,,,"blanchart, l",,,,,,"art st quentin, nouveautés, cravates ; maison à st quentin",,,rue,des,jeuneurs,3.0,,,,,,,,,,precise_geocoding,jacoubet_paris,1,2.34486459502202,48.8694359809466,3.0  rue des jeuneurs
208,2394,marchands d' étoffes de coton,1835,"almanach du commerce de Paris, des départemens de la France, et des principales villes du monde, de Jean de la Tynna ; continué et progressivement amélioré par S. Bottin, XXXVIIIe année, année 1835.",E,,,caron-marlio,,,,,,"art de st quentin et tarare, tulles et broderies",,,rue,du,sentier,12.0,,,,,,,,,,precise_geocoding,jacoubet_paris,1,2.34612514466702,48.8696362059811,12.0  rue du sentier
209,2396,marchands d' étoffes de coton,1835,"almanach du commerce de Paris, des départemens de la France, et des principales villes du monde, de Jean de la Tynna ; continué et progressivement amélioré par S. Bottin, XXXVIIIe année, année 1835.",E,,,causse fils,,,,,,"calicots, percales, toiles peintes, guinghams",,,rue,du,sentier,16.0,,,,,,,,,,precise_geocoding,jacoubet_paris,1,2.3462109224812595,48.8698325534488,16.0  rue du sentier
210,2413,marchands d' étoffes de coton,1835,"almanach du commerce de Paris, des départemens de la France, et des principales villes du monde, de Jean de la Tynna ; continué et progressivement amélioré par S. Bottin, XXXVIIIe année, année 1835.",E,,,fournery & co,,,,,,"calicots, percales, mousselines, jaconas et fantaisies ; maison à st quentin ; rue des bourdonnais 9 et béthisy 10",,,rue,des,bourdonnais,9.0,,,,,,,,,,precise_geocoding,jacoubet_paris,1,2.34481029189067,48.8598446819796,9.0  rue des bourdonnais
211,2417,marchands d' étoffes de coton,1835,"almanach du commerce de Paris, des départemens de la France, et des principales villes du monde, de Jean de la Tynna ; continué et progressivement amélioré par S. Bottin, XXXVIIIe année, année 1835.",E,,,"hébert, auguste",,,,,,"mousseline unie et brodée de tarare, st quentin, alsace, calicots, percales, jaconas unis et façonnés, gazes coton et autres art de st quentin, batiste, gros linon triple apprêt pour modes et casquettes",,,rue,,quincampoix,4.0,,,,,,,,,,precise_geocoding,jacoubet_paris,1,2.35030214865085,48.860563380069294,4.0  rue  quincampoix
212,2418,marchands d' étoffes de coton,1835,"almanach du commerce de Paris, des départemens de la France, et des principales villes du monde, de Jean de la Tynna ; continué et progressivement amélioré par S. Bottin, XXXVIIIe année, année 1835.",E,,,heimann fils & co,,,,,,calicots d'alsace,,,rue,des,jeuneurs,1.0,,,,,,,,,,precise_geocoding,jacoubet_paris,1,2.3455723769820698,48.8692313301911,1.0  rue des jeuneurs
213,2429,marchands d' étoffes de coton,1835,"almanach du commerce de Paris, des départemens de la France, et des principales villes du monde, de Jean de la Tynna ; continué et progressivement amélioré par S. Bottin, XXXVIIIe année, année 1835.",E,,,maldan aîné,,,,,,"calicots, percales, mousselines, jaconas, tulles unis et brodés, mouchoirs de batiste, gros linon, coutils et basins pour corsets, dépôt de blouses",,,rue,,thibaudoté,12.0,,,,,,,,,,precise_geocoding,jacoubet_paris,1,2.34395252135669,48.8591223612341,12.0  rue  thibaudoté
214,2430,marchands d' étoffes de coton,1835,"almanach du commerce de Paris, des départemens de la France, et des principales villes du monde, de Jean de la Tynna ; continué et progressivement amélioré par S. Bottin, XXXVIIIe année, année 1835.",E,,,malleval,,,,,,,,,rue,des,bourdonnais,21.0,,,,,,,,,,precise_geocoding,jacoubet_paris,1,2.3453591263056497,48.8605230937785,21.0  rue des bourdonnais
215,2442,marchands d' étoffes de coton,1835,"almanach du commerce de Paris, des départemens de la France, et des principales villes du monde, de Jean de la Tynna ; continué et progressivement amélioré par S. Bottin, XXXVIIIe année, année 1835.",E,,,"picard-alkan, s",,,,,,"mouss en gros, dépôt de cannes en tout genre",,,rue,,quincampoix,75.0,,,,,,,,,,precise_geocoding,jacoubet_paris,1,2.3511887066555603,48.86266565774,75.0  rue  quincampoix
216,2445,marchands d' étoffes de coton,1835,"almanach du commerce de Paris, des départemens de la France, et des principales villes du monde, de Jean de la Tynna ; continué et progressivement amélioré par S. Bottin, XXXVIIIe année, année 1835.",E,,,renaudière,,,,,,mousselines en gros,,,rue,,quincampoix,19.0,,,,,,,,,,precise_geocoding,jacoubet_paris,1,2.3504297574883197,48.8611135257866,19.0  rue  quincampoix
217,2450,marchands d' étoffes de coton,1835,"almanach du commerce de Paris, des départemens de la France, et des principales villes du monde, de Jean de la Tynna ; continué et progressivement amélioré par S. Bottin, XXXVIIIe année, année 1835.",E,,,"sallantin, abel",,,,,,"mouss, percales, calic, basins, batistes, toiles demi hollande, wesphalie et autres en gros",,,rue,,thibaudoté,11.0,,,,,,,,,,precise_geocoding,jacoubet_paris,1,2.3438305106278903,48.8591261679279,11.0  rue  thibaudoté
218,2451,marchands d' étoffes de coton,1835,"almanach du commerce de Paris, des départemens de la France, et des principales villes du monde, de Jean de la Tynna ; continué et progressivement amélioré par S. Bottin, XXXVIIIe année, année 1835.",E,,,"salmon, alexandre",,,,,,fab à tarare et à st quentin ; dépôt,,,rue,des,lavandières sainte opportune,25.0,,,,,,,,,,precise_geocoding,jacoubet_paris,1,2.34619577994317,48.8590825277929,25.0  rue des lavandières sainte opportune
219,2454,marchands d' étoffes de coton,1835,"almanach du commerce de Paris, des départemens de la France, et des principales villes du monde, de Jean de la Tynna ; continué et progressivement amélioré par S. Bottin, XXXVIIIe année, année 1835.",E,,,tardieu fils,,,,,,,,,impasse,des,bourdonnais,6.0,,,,,,,,,,precise_geocoding,jacoubet_paris,1,2.3447276958166,48.8606235176019,6.0  impasse des bourdonnais
220,2457,marchands d' étoffes de coton,1835,"almanach du commerce de Paris, des départemens de la France, et des principales villes du monde, de Jean de la Tynna ; continué et progressivement amélioré par S. Bottin, XXXVIIIe année, année 1835.",E,,,yver jeune,,,,,,"articles de st quentin et alsace, guingams, madras, cravates, percales, mousselines, art d'exportation ; maison à st quentin",,,rue,du,gros chenet,2.0,bis,,,,,,,,,precise_geocoding,jacoubet_paris,1,2.34539993252189,48.8680307759682,2.0 bis rue du gros chenet
221,2471,fabricans d'étoffes de coton,1835,"almanach du commerce de Paris, des départemens de la France, et des principales villes du monde, de Jean de la Tynna ; continué et progressivement amélioré par S. Bottin, XXXVIIIe année, année 1835.",F1835,,,feray & co,,,,,,"filat hudraulique à chantemerle, commune d'essonne, tissae de madapolams, linge de table ouvré et damassé, ateliers de construction pour mécanique de toute espèce, moulins à blé et autres : ils exploitent aussi la filat de rouval les doullens",,,rue,du,sentier,3.0,,,,,,,,,,precise_geocoding,jacoubet_paris,1,2.34590401386491,48.869436096440495,3.0  rue du sentier
222,2473,fabricans d'étoffes de coton,1835,"almanach du commerce de Paris, des départemens de la France, et des principales villes du monde, de Jean de la Tynna ; continué et progressivement amélioré par S. Bottin, XXXVIIIe année, année 1835.",F1835,,,"hulot, j",,,,,,"fab tissus, madapolams, piqués, poil de chèvre, mousseline laine, thibet, etc ; fab à st arnoult (seine & oise)",,,rue,,neuve saint eustache,36.0,,,,,,,,,,precise_geocoding,jacoubet_paris,1,2.3460660452296604,48.867446636551,36.0  rue  neuve saint eustache
223,2502,étoffes de coton (fab et march de),1845,"Annuaire du commerce et de l'industrie, de la magistrature et de l'administration, ou almanach des 500 000 adresses, punlié par Firmin Didot Frères, 1845, 8ème année de la publication.",EF1845,,,"david, andré et jules",,,,,,"tissus en coton, laine et mélangés pour teinture et impression de leur fab de st quentin",,,rue,,saint fiacre,20.0,,,,,,,,,,precise_geocoding,poubelle_municipal_paris,1,2.34584931169903,48.870695233699294,20.0  rue  saint fiacre
224,2510,étoffes de coton (fab et march de),1845,"Annuaire du commerce et de l'industrie, de la magistrature et de l'administration, ou almanach des 500 000 adresses, punlié par Firmin Didot Frères, 1845, 8ème année de la publication.",EF1845,,,dubois & dupuytrem,,,,,,"tissus d'alsace, indiennes, mousselines et cravates imprimés",,,rue,,jeuneurs,3.0,,,,,,,,,,precise_geocoding,jacoubet_paris,1,2.34486459502202,48.8694359809466,3.0  rue  jeuneurs
225,2511,étoffes de coton (fab et march de),1845,"Annuaire du commerce et de l'industrie, de la magistrature et de l'administration, ou almanach des 500 000 adresses, punlié par Firmin Didot Frères, 1845, 8ème année de la publication.",EF1845,,,dupont,,,,,,,,,rue,du,bac,52.0,,,,,,,,,,precise_geocoding,Jacoubet_paris,1,2.32572216241004,48.8561033164365,52.0  rue du bac
226,2523,étoffes de coton (fab et march de),1845,"Annuaire du commerce et de l'industrie, de la magistrature et de l'administration, ou almanach des 500 000 adresses, punlié par Firmin Didot Frères, 1845, 8ème année de la publication.",EF1845,,,guillot père,,,,,,,,,quai,,jemmapes,208.0,,,,,,,,,,precise_geocoding,poubelle_paris,1,2.36973714869198,48.88117333842521,208.0  quai  jemmapes
227,2532,étoffes de coton (fab et march de),1845,"Annuaire du commerce et de l'industrie, de la magistrature et de l'administration, ou almanach des 500 000 adresses, punlié par Firmin Didot Frères, 1845, 8ème année de la publication.",EF1845,,,"kiener, t.",,,,,,cotonnades d'alsace et nouveautés,,,rue,,saint roch-poissonnière,10.0,,,,,,,,,,precise_geocoding,jacoubet_paris,1,2.34726293188855,48.868984499623004,10.0  rue  saint roch-poissonnière
228,2546,étoffes de coton (fab et march de),1845,"Annuaire du commerce et de l'industrie, de la magistrature et de l'administration, ou almanach des 500 000 adresses, punlié par Firmin Didot Frères, 1845, 8ème année de la publication.",EF1845,,,mennnet-possoz,,,,,,"art de tarare, st quentin et alsace, mousselines, calicots, fantaisies, tulles, broderies, nouv. Pour robes",,,rue,,sentier,1.0,,,,,,,,,,precise_geocoding,jacoubet_paris,1,2.34584939441527,48.869322981703995,1.0  rue  sentier
229,2560,étoffes de coton (fab et march de),1845,"Annuaire du commerce et de l'industrie, de la magistrature et de l'administration, ou almanach des 500 000 adresses, punlié par Firmin Didot Frères, 1845, 8ème année de la publication.",EF1845,,,"sallantin, abel & cie",,,,,,"art d'alsace, st quentin et tarare",,,rue,,sentier,20.0,bis,,,,,,,,,precise_geocoding,jacoubet_paris,1,2.3464225086049,48.870208536701796,20.0 bis rue  sentier
230,2570,merinos (marchands en gros de tissus),1825,,G1825,,,amphoux & vincent,,,,,,"flanelles, châles, mérinos et escots unis et imprimés",,,rue,,neuve saint eustache,6.0,,,,,,,,,,precise_geocoding,jacoubet_paris,1,2.3445354362929303,48.8669571197751,6.0  rue  neuve saint eustache
231,2574,merinos (marchands en gros de tissus),1825,,G1825,,,barochée-perrier,,,,,,,,,rue,de la,monnaie,26.0,,,,,,,,,,precise_geocoding,jacoubet_paris,1,2.34327859343423,48.85993192223471,26.0  rue de la monnaie
232,2587,merinos (marchands en gros de tissus),1825,,G1825,,,"jolly aîné & lesguilliez, augt",,,,,,,,,place,des,victoires,9.0,,,,,,,,,,precise_geocoding,jacoubet_paris,1,2.3415519936898797,48.865594609520905,9.0  place des victoires
233,2592,mérinos (marchands en gros de tissus),1825,,G1825,,,maillard,,,,,,"escots, alépines et châles à bordures, bourre de soie",,,rue,,montmartre,76.0,,,,,,,,,,precise_geocoding,jacoubet_paris,1,2.3446086658686496,48.8659172625617,76.0  rue  montmartre
234,2603,mérinos (marchands en gros de tissus),1825,,G1825,,,picher & co,,,,,,,,,rue,des,fossés montmartre,21.0,,,,,,,,,,precise_geocoding,jacoubet_paris,1,2.3431670309243398,48.866579388291505,21.0  rue des fossés montmartre
235,2613,mérinos (marchands en gros de tissus),1825,,G1825,,,"sourdeaux, a & co",,,,,,"et châles unis et imprimés, filat de laine à créteil",,,rue,des,fossés montmartre,6.0,,,,,,,,,,precise_geocoding,jacoubet_paris,1,2.3424273706597902,48.8662039646719,6.0  rue des fossés montmartre
236,2620,mérinos (march en gros de tissus),1835,"almanach du commerce de Paris, des départemens de la France, et des principales villes du monde, de Jean de la Tynna ; continué et progressivement amélioré par S. Bottin, XXXVIIIe année, année 1835.",G1835,,,"bockairy, jules",,,,,,,,,rue,,croix des petits champs,23.0,,,,,,,,,,precise_geocoding,jacoubet_paris,1,2.3396075297215604,48.86344695000529,23.0  rue  croix des petits champs
237,2623,mérinos (march en gros de tissus),1835,"almanach du commerce de Paris, des départemens de la France, et des principales villes du monde, de Jean de la Tynna ; continué et progressivement amélioré par S. Bottin, XXXVIIIe année, année 1835.",G1835,,,"bonnevie, jn",,,,,,et art de laine en écru,,,rue,du,petit carreau,13.0,,,,,,,,,,precise_geocoding,jacoubet_paris,1,2.3470276678816298,48.866799270853996,13.0  rue du petit carreau
238,2632,mérinos (march en gros de tissus),1835,"almanach du commerce de Paris, des départemens de la France, et des principales villes du monde, de Jean de la Tynna ; continué et progressivement amélioré par S. Bottin, XXXVIIIe année, année 1835.",G1835,,,dérué neveu,,,,,,"renforcés, napolitaines, châles unis, bordurés et à coins ; maison à reims",,,rue,,neuve saint eustache,39.0,,,,,,,,,,precise_geocoding,jacoubet_paris,1,2.34666989305608,48.8677407178753,39.0  rue  neuve saint eustache
239,2635,mérinos (march en gros de tissus),1835,"almanach du commerce de Paris, des départemens de la France, et des principales villes du monde, de Jean de la Tynna ; continué et progressivement amélioré par S. Bottin, XXXVIIIe année, année 1835.",G1835,,,dromery jeune & co,,,,,,"art de reims en gros, napolitaines, flanelles ; et maison à reims",,,rue,de,cléry,9.0,,,,,,,,,,precise_geocoding,jacoubet_paris,1,2.34458899240179,48.86756178870421,9.0  rue de cléry
240,2662,mérinos (march en gros de tissus),1835,"almanach du commerce de Paris, des départemens de la France, et des principales villes du monde, de Jean de la Tynna ; continué et progressivement amélioré par S. Bottin, XXXVIIIe année, année 1835.",G1835,,,mazade,,,,,,tissu et napolitaines,,,rue,,montmartre,102.0,,,,,,,,,,precise_geocoding,jacoubet_paris,1,2.34410879598804,48.8671398513278,102.0  rue  montmartre
241,2663,mérinos (march en gros de tissus),1835,"almanach du commerce de Paris, des départemens de la France, et des principales villes du monde, de Jean de la Tynna ; continué et progressivement amélioré par S. Bottin, XXXVIIIe année, année 1835.",G1835,,,michel,,,,,,seul dépôt avoué des fab ternaux & fils,,,rue,des,fossés montmartre,3.0,,,,,,,,,,precise_geocoding,jacoubet_paris,1,2.34174419279365,48.86605948020411,3.0  rue des fossés montmartre
242,2686,"mérinos, laine, flanelle, escot, stoffs, alépines, napolitaines, etc",1845,"Annuaire du commerce et de l'industrie, de la magistrature et de l'administration, ou almanach des 500 000 adresses, punlié par Firmin Didot Frères, 1845, 8ème année de la publication.",G1845,,,"aron-javal, l.",,,,,,flanelle de reims,,,rue,,bourdonnais,17.0,,,,,,,,,,precise_geocoding,jacoubet_paris,1,2.3451302937382796,48.8602484503029,17.0  rue  bourdonnais
243,2703,"mérinos, laine, flanelle, escot, stoffs, alépines, napolitaines, etc",1845,"Annuaire du commerce et de l'industrie, de la magistrature et de l'administration, ou almanach des 500 000 adresses, punlié par Firmin Didot Frères, 1845, 8ème année de la publication.",G1845,,,"cantoni, r.",,,,,,"mérinos, flanelles et châles",,,rue,,mail,7.0,,,,,,,,,,precise_geocoding,jacoubet_paris,1,2.3416681106051804,48.866522023588104,7.0  rue  mail
244,2710,"mérinos, laine, flanelle, escot, stoffs, alépines, napolitaines, etc",1845,"Annuaire du commerce et de l'industrie, de la magistrature et de l'administration, ou almanach des 500 000 adresses, punlié par Firmin Didot Frères, 1845, 8ème année de la publication.",G1845,,,"danin, clle",,,,,,"mérinos, napolitaines unies et imprimées",,,rue,,neuve saint eustache,36.0,38,,,,,,,,,precise_geocoding,jacoubet_paris,1,2.3460660452296604,48.867446636551,36.0 38 rue  neuve saint eustache
245,2713,"mérinos, laine, flanelle, escot, stoffs, alépines, napolitaines, etc",1845,"Annuaire du commerce et de l'industrie, de la magistrature et de l'administration, ou almanach des 500 000 adresses, punlié par Firmin Didot Frères, 1845, 8ème année de la publication.",G1845,,,"david, félix & cie",,,,,,"tissus mérinos, napolitaines, stoffs, mousseline-laine et nouveautés",,,rue,,neuve saint eustache,21.0,,,,,,,,,,precise_geocoding,jacoubet_paris,1,2.34570426778658,48.867429104339294,21.0  rue  neuve saint eustache
246,2714,"mérinos, laine, flanelle, escot, stoffs, alépines, napolitaines, etc",1845,"Annuaire du commerce et de l'industrie, de la magistrature et de l'administration, ou almanach des 500 000 adresses, punlié par Firmin Didot Frères, 1845, 8ème année de la publication.",G1845,,,davin-defresne,,,,,,"fab à st quentin, tissus écrus, laine et soie, nouveautés et mousselines pour meubles",,,rue,,jeuneurs,16.0,,,,,,,,,,precise_geocoding,poubelle_municipal_paris,1,2.34361244959158,48.8698295805535,16.0  rue  jeuneurs
247,2721,"mérinos, laine, flanelle, escot, stoffs, alépines, napolitaines, etc",1845,"Annuaire du commerce et de l'industrie, de la magistrature et de l'administration, ou almanach des 500 000 adresses, punlié par Firmin Didot Frères, 1845, 8ème année de la publication.",G1845,,,desvaux levant,,,,,,,,,rue,,saint martin,125.0,127,,,,,,,,,precise_geocoding,jacoubet_paris,1,2.35201095337697,48.86267919426021,125.0 127 rue  saint martin
